{
  "customers": [
    {
      "id": 1001,
      "name": "Trần Thị Bích",
      "phone": "0987001001",
      "email": "tranthiibich@gmail.com",
      "address": "15 Phố Huế, Hai Bà Trưng",
      "district": "Hai Bà Trưng",
      "lat": 21.0154,
      "lon": 105.8512,
      "total_orders": 8,
      "member_since": "2023-02-14",
      "password": "123456"
    },
    {
      "id": 1002,
      "name": "Nguyễn Minh Khoa",
      "phone": "0987001002",
      "email": "nguyenminhkhoa@gmail.com",
      "address": "42 Hàng Bông, Hoàn Kiếm",
      "district": "Hoàn Kiếm",
      "lat": 21.0278,
      "lon": 105.849,
      "total_orders": 15,
      "member_since": "2022-08-05",
      "password": "123456"
    },
    {
      "id": 1003,
      "name": "Lê Thị Thu Hà",
      "phone": "0987001003",
      "email": "lethithuha@gmail.com",
      "address": "88 Nguyễn Chí Thanh, Đống Đa",
      "district": "Đống Đa",
      "lat": 21.0301,
      "lon": 105.8379,
      "total_orders": 4,
      "member_since": "2024-01-20",
      "password": "123456"
    },
    {
      "id": 1004,
      "name": "Phạm Văn Hùng",
      "phone": "0987001004",
      "email": "phamvanhung@gmail.com",
      "address": "20 Đội Cấn, Ba Đình",
      "district": "Ba Đình",
      "lat": 21.039,
      "lon": 105.831,
      "total_orders": 22,
      "member_since": "2021-11-10",
      "password": "123456"
    },
    {
      "id": 1005,
      "name": "Hoàng Thị Lan",
      "phone": "0987001005",
      "email": "hoangthilan@gmail.com",
      "address": "55 Xuân Thủy, Cầu Giấy",
      "district": "Cầu Giấy",
      "lat": 21.0388,
      "lon": 105.7968,
      "total_orders": 11,
      "member_since": "2023-05-18",
      "password": "123456"
    },
    {
      "id": 1006,
      "name": "Vũ Quang Huy",
      "phone": "0987001006",
      "email": "vuquanghuy@gmail.com",
      "address": "130 Nguyễn Trãi, Thanh Xuân",
      "district": "Thanh Xuân",
      "lat": 20.9972,
      "lon": 105.8178,
      "total_orders": 7,
      "member_since": "2023-09-03",
      "password": "123456"
    },
    {
      "id": 1007,
      "name": "Đặng Thị Ngọc",
      "phone": "0987001007",
      "email": "dangthingoc@gmail.com",
      "address": "67 Tân Mai, Hoàng Mai",
      "district": "Hoàng Mai",
      "lat": 20.9823,
      "lon": 105.8561,
      "total_orders": 3,
      "member_since": "2024-03-12",
      "password": "123456"
    },
    {
      "id": 1008,
      "name": "Bùi Thành Đức",
      "phone": "0987001008",
      "email": "buithanhduc@gmail.com",
      "address": "12 Nguyễn Văn Cừ, Long Biên",
      "district": "Long Biên",
      "lat": 21.0542,
      "lon": 105.8903,
      "total_orders": 19,
      "member_since": "2022-04-27",
      "password": "123456"
    },
    {
      "id": 1009,
      "name": "Hồ Thị Phương",
      "phone": "0987001009",
      "email": "hothiphuong@gmail.com",
      "address": "38 Âu Cơ, Tây Hồ",
      "district": "Tây Hồ",
      "lat": 21.0671,
      "lon": 105.8215,
      "total_orders": 6,
      "member_since": "2023-07-22",
      "password": "123456"
    },
    {
      "id": 1010,
      "name": "Ngô Đức Anh",
      "phone": "0987001010",
      "email": "ngoducanh@gmail.com",
      "address": "74 Lê Văn Lương, Nam Từ Liêm",
      "district": "Nam Từ Liêm",
      "lat": 21.0028,
      "lon": 105.7742,
      "total_orders": 13,
      "member_since": "2022-12-09",
      "password": "123456"
    },
    {
      "id": 1011,
      "name": "Đinh Thị Yến",
      "phone": "0987001011",
      "email": "dinhthiyen@gmail.com",
      "address": "9 Đình Thôn, Bắc Từ Liêm",
      "district": "Bắc Từ Liêm",
      "lat": 21.0619,
      "lon": 105.7798,
      "total_orders": 2,
      "member_since": "2024-05-01",
      "password": "123456"
    },
    {
      "id": 1012,
      "name": "Lý Văn Toàn",
      "phone": "0987001012",
      "email": "lyvantoan@gmail.com",
      "address": "25 Quang Trung, Hà Đông",
      "district": "Hà Đông",
      "lat": 20.9713,
      "lon": 105.7834,
      "total_orders": 9,
      "member_since": "2023-03-15",
      "password": "123456"
    },
    {
      "id": 1013,
      "name": "Phan Thị Trang",
      "phone": "0987001013",
      "email": "phanthitrang@gmail.com",
      "address": "101 Kim Mã, Ba Đình",
      "district": "Ba Đình",
      "lat": 21.0355,
      "lon": 105.8265,
      "total_orders": 16,
      "member_since": "2022-06-30",
      "password": "123456"
    },
    {
      "id": 1014,
      "name": "Dương Văn Long",
      "phone": "0987001014",
      "email": "duongvanlong@gmail.com",
      "address": "33 Xã Đàn, Đống Đa",
      "district": "Đống Đa",
      "lat": 21.0214,
      "lon": 105.8428,
      "total_orders": 5,
      "member_since": "2024-02-08",
      "password": "123456"
    },
    {
      "id": 1015,
      "name": "Trần Minh Tú",
      "phone": "0987001015",
      "email": "tranminhtu@gmail.com",
      "address": "18 Hàng Đào, Hoàn Kiếm",
      "district": "Hoàn Kiếm",
      "lat": 21.0328,
      "lon": 105.8503,
      "total_orders": 28,
      "member_since": "2021-05-17",
      "password": "123456"
    },
    {
      "id": 1016,
      "name": "Nguyễn Thị Hoa",
      "phone": "0987001016",
      "email": "nguyenthihoa@gmail.com",
      "address": "56 Bạch Mai, Hai Bà Trưng",
      "district": "Hai Bà Trưng",
      "lat": 21.0089,
      "lon": 105.8555,
      "total_orders": 10,
      "member_since": "2023-01-04",
      "password": "123456"
    },
    {
      "id": 1017,
      "name": "Lê Quang Vinh",
      "phone": "0987001017",
      "email": "lequangvinh@gmail.com",
      "address": "77 Trần Duy Hưng, Cầu Giấy",
      "district": "Cầu Giấy",
      "lat": 21.0164,
      "lon": 105.7919,
      "total_orders": 14,
      "member_since": "2022-10-21",
      "password": "123456"
    },
    {
      "id": 1018,
      "name": "Hoàng Anh Khoa",
      "phone": "0987001018",
      "email": "hoanganhkhoa@gmail.com",
      "address": "44 Giải Phóng, Hoàng Mai",
      "district": "Hoàng Mai",
      "lat": 20.9779,
      "lon": 105.8435,
      "total_orders": 7,
      "member_since": "2023-08-14",
      "password": "123456"
    },
    {
      "id": 1019,
      "name": "Vũ Thị Hương",
      "phone": "0987001019",
      "email": "vuthihuong@gmail.com",
      "address": "3 Phạm Văn Đồng, Bắc Từ Liêm",
      "district": "Bắc Từ Liêm",
      "lat": 21.0658,
      "lon": 105.7861,
      "total_orders": 5,
      "member_since": "2023-11-29",
      "password": "123456"
    },
    {
      "id": 1020,
      "name": "Đỗ Văn Nam",
      "phone": "0987001020",
      "email": "dovannam@gmail.com",
      "address": "89 Nguyễn Hoàng Tôn, Tây Hồ",
      "district": "Tây Hồ",
      "lat": 21.0732,
      "lon": 105.8143,
      "total_orders": 12,
      "member_since": "2022-07-06",
      "password": "123456"
    },
    {
      "id": 1021,
      "name": "Bùi Thị Minh",
      "phone": "0987001021",
      "email": "buithiminh@gmail.com",
      "address": "62 Đinh Tiên Hoàng, Hoàn Kiếm",
      "district": "Hoàn Kiếm",
      "lat": 21.031,
      "lon": 105.8526,
      "total_orders": 17,
      "member_since": "2022-03-19",
      "password": "123456"
    },
    {
      "id": 1022,
      "name": "Ngô Thị Linh",
      "phone": "0987001022",
      "email": "ngothilinh@gmail.com",
      "address": "15 Trường Chinh, Thanh Xuân",
      "district": "Thanh Xuân",
      "lat": 20.9948,
      "lon": 105.8212,
      "total_orders": 6,
      "member_since": "2023-12-05",
      "password": "123456"
    },
    {
      "id": 1023,
      "name": "Phạm Quốc Bảo",
      "phone": "0987001023",
      "email": "phamquocbao@gmail.com",
      "address": "28 Minh Khai, Hai Bà Trưng",
      "district": "Hai Bà Trưng",
      "lat": 21.0048,
      "lon": 105.8638,
      "total_orders": 20,
      "member_since": "2022-02-13",
      "password": "123456"
    },
    {
      "id": 1024,
      "name": "Hồ Thị Thủy",
      "phone": "0987001024",
      "email": "hothithuy@gmail.com",
      "address": "50 Trần Phú, Hà Đông",
      "district": "Hà Đông",
      "lat": 20.9685,
      "lon": 105.7891,
      "total_orders": 8,
      "member_since": "2023-06-25",
      "password": "123456"
    },
    {
      "id": 1025,
      "name": "Đinh Quang Đức",
      "phone": "0987001025",
      "email": "dinhquangduc@gmail.com",
      "address": "11 Cổ Nhuế, Bắc Từ Liêm",
      "district": "Bắc Từ Liêm",
      "lat": 21.0593,
      "lon": 105.7824,
      "total_orders": 4,
      "member_since": "2024-04-10",
      "password": "123456"
    },
    {
      "id": 1026,
      "name": "Lý Thị Quỳnh",
      "phone": "0987001026",
      "email": "lythiquynh@gmail.com",
      "address": "36 Đường Láng, Đống Đa",
      "district": "Đống Đa",
      "lat": 21.0239,
      "lon": 105.8356,
      "total_orders": 11,
      "member_since": "2023-04-02",
      "password": "123456"
    },
    {
      "id": 1027,
      "name": "Phan Văn Tài",
      "phone": "0987001027",
      "email": "phanvantai@gmail.com",
      "address": "93 Cầu Diễn, Nam Từ Liêm",
      "district": "Nam Từ Liêm",
      "lat": 21.0081,
      "lon": 105.7668,
      "total_orders": 9,
      "member_since": "2023-01-28",
      "password": "123456"
    },
    {
      "id": 1028,
      "name": "Trần Thị Mai",
      "phone": "0987001028",
      "email": "tranthimai@gmail.com",
      "address": "7 Gia Lâm, Long Biên",
      "district": "Long Biên",
      "lat": 21.0489,
      "lon": 105.9012,
      "total_orders": 6,
      "member_since": "2023-10-17",
      "password": "123456"
    },
    {
      "id": 1029,
      "name": "Nguyễn Hữu Đạt",
      "phone": "0987001029",
      "email": "nguyenhuudat@gmail.com",
      "address": "45 Hoàng Hoa Thám, Ba Đình",
      "district": "Ba Đình",
      "lat": 21.0423,
      "lon": 105.8288,
      "total_orders": 18,
      "member_since": "2022-05-09",
      "password": "123456"
    },
    {
      "id": 1030,
      "name": "Lê Thị Vân",
      "phone": "0987001030",
      "email": "lethivan@gmail.com",
      "address": "22 Lê Đức Thọ, Nam Từ Liêm",
      "district": "Nam Từ Liêm",
      "lat": 21.0102,
      "lon": 105.7695,
      "total_orders": 3,
      "member_since": "2024-02-27",
      "password": "123456"
    },
    {
      "id": 1031,
      "name": "Hoàng Văn Cường",
      "phone": "0987001031",
      "email": "hoangvancuong@gmail.com",
      "address": "14 Ngô Gia Tự, Long Biên",
      "district": "Long Biên",
      "lat": 21.0578,
      "lon": 105.8842,
      "total_orders": 14,
      "member_since": "2022-09-12",
      "password": "123456"
    },
    {
      "id": 1032,
      "name": "Vũ Thị Thu",
      "phone": "0987001032",
      "email": "vuthithu@gmail.com",
      "address": "80 Kim Liên, Đống Đa",
      "district": "Đống Đa",
      "lat": 21.0187,
      "lon": 105.8411,
      "total_orders": 7,
      "member_since": "2023-07-08",
      "password": "123456"
    },
    {
      "id": 1033,
      "name": "Đặng Quốc Tuấn",
      "phone": "0987001033",
      "email": "dangquoctuan@gmail.com",
      "address": "31 Chùa Láng, Đống Đa",
      "district": "Đống Đa",
      "lat": 21.0265,
      "lon": 105.8348,
      "total_orders": 21,
      "member_since": "2021-12-20",
      "password": "123456"
    },
    {
      "id": 1034,
      "name": "Bùi Minh Châu",
      "phone": "0987001034",
      "email": "buiminhchau@gmail.com",
      "address": "66 Vĩnh Tuy, Hai Bà Trưng",
      "district": "Hai Bà Trưng",
      "lat": 21.0065,
      "lon": 105.8717,
      "total_orders": 10,
      "member_since": "2023-03-31",
      "password": "123456"
    },
    {
      "id": 1035,
      "name": "Hồ Quốc Việt",
      "phone": "0987001035",
      "email": "hoquocviet@gmail.com",
      "address": "48 Lê Quang Đạo, Nam Từ Liêm",
      "district": "Nam Từ Liêm",
      "lat": 20.9988,
      "lon": 105.7776,
      "total_orders": 5,
      "member_since": "2023-11-14",
      "password": "123456"
    },
    {
      "id": 1036,
      "name": "Ngô Thị Nhung",
      "phone": "0987001036",
      "email": "ngothinuhng@gmail.com",
      "address": "17 Giảng Võ, Ba Đình",
      "district": "Ba Đình",
      "lat": 21.0341,
      "lon": 105.8239,
      "total_orders": 8,
      "member_since": "2023-08-26",
      "password": "123456"
    },
    {
      "id": 1037,
      "name": "Đinh Văn Sơn",
      "phone": "0987001037",
      "email": "dinhvanson@gmail.com",
      "address": "53 Đường Bưởi, Tây Hồ",
      "district": "Tây Hồ",
      "lat": 21.0588,
      "lon": 105.8189,
      "total_orders": 16,
      "member_since": "2022-01-16",
      "password": "123456"
    },
    {
      "id": 1038,
      "name": "Lý Thị Hà",
      "phone": "0987001038",
      "email": "lythiha@gmail.com",
      "address": "29 Thái Hà, Đống Đa",
      "district": "Đống Đa",
      "lat": 21.0225,
      "lon": 105.8381,
      "total_orders": 12,
      "member_since": "2022-11-23",
      "password": "123456"
    },
    {
      "id": 1039,
      "name": "Phan Quang Hải",
      "phone": "0987001039",
      "email": "phanquanghai@gmail.com",
      "address": "71 Lê Văn Hiến, Bắc Từ Liêm",
      "district": "Bắc Từ Liêm",
      "lat": 21.0644,
      "lon": 105.7835,
      "total_orders": 4,
      "member_since": "2024-01-09",
      "password": "123456"
    },
    {
      "id": 1040,
      "name": "Trần Văn Dũng",
      "phone": "0987001040",
      "email": "tranvandung@gmail.com",
      "address": "39 Cầu Bươu, Hà Đông",
      "district": "Hà Đông",
      "lat": 20.9652,
      "lon": 105.7813,
      "total_orders": 9,
      "member_since": "2023-05-05",
      "password": "123456"
    },
    {
      "id": 1041,
      "name": "Nguyễn Thị Uyên",
      "phone": "0987001041",
      "email": "nguyenthiuyen@gmail.com",
      "address": "5 Lò Đúc, Hai Bà Trưng",
      "district": "Hai Bà Trưng",
      "lat": 21.0121,
      "lon": 105.8576,
      "total_orders": 13,
      "member_since": "2022-07-29",
      "password": "123456"
    },
    {
      "id": 1042,
      "name": "Lê Minh Đức",
      "phone": "0987001042",
      "email": "leminhduc@gmail.com",
      "address": "84 Nguyễn Khánh Toàn, Cầu Giấy",
      "district": "Cầu Giấy",
      "lat": 21.0359,
      "lon": 105.8002,
      "total_orders": 6,
      "member_since": "2023-10-10",
      "password": "123456"
    },
    {
      "id": 1043,
      "name": "Hoàng Thị Bình",
      "phone": "0987001043",
      "email": "hoangthihinh@gmail.com",
      "address": "23 Phúc Xá, Ba Đình",
      "district": "Ba Đình",
      "lat": 21.0468,
      "lon": 105.8458,
      "total_orders": 7,
      "member_since": "2023-12-19",
      "password": "123456"
    },
    {
      "id": 1044,
      "name": "Vũ Quốc Hùng",
      "phone": "0987001044",
      "email": "vuquochung@gmail.com",
      "address": "60 Lạc Trung, Hai Bà Trưng",
      "district": "Hai Bà Trưng",
      "lat": 21.0138,
      "lon": 105.8641,
      "total_orders": 11,
      "member_since": "2022-04-14",
      "password": "123456"
    },
    {
      "id": 1045,
      "name": "Đỗ Thị Tuyết",
      "phone": "0987001045",
      "email": "dothituyet@gmail.com",
      "address": "16 Trung Kính, Cầu Giấy",
      "district": "Cầu Giấy",
      "lat": 21.0143,
      "lon": 105.7979,
      "total_orders": 8,
      "member_since": "2023-06-02",
      "password": "123456"
    },
    {
      "id": 1046,
      "name": "Bùi Văn Khoa",
      "phone": "0987001046",
      "email": "buivankhoa@gmail.com",
      "address": "41 Vĩnh Hưng, Hoàng Mai",
      "district": "Hoàng Mai",
      "lat": 20.9756,
      "lon": 105.8612,
      "total_orders": 5,
      "member_since": "2023-09-21",
      "password": "123456"
    },
    {
      "id": 1047,
      "name": "Hồ Thị Nga",
      "phone": "0987001047",
      "email": "hothinga@gmail.com",
      "address": "78 Phương Liệt, Thanh Xuân",
      "district": "Thanh Xuân",
      "lat": 20.9912,
      "lon": 105.8264,
      "total_orders": 15,
      "member_since": "2022-03-08",
      "password": "123456"
    },
    {
      "id": 1048,
      "name": "Ngô Văn Hưng",
      "phone": "0987001048",
      "email": "ngovanhung@gmail.com",
      "address": "34 Ngô Gia Khảm, Long Biên",
      "district": "Long Biên",
      "lat": 21.0612,
      "lon": 105.8978,
      "total_orders": 9,
      "member_since": "2023-02-25",
      "password": "123456"
    },
    {
      "id": 1049,
      "name": "Đinh Thị Hạnh",
      "phone": "0987001049",
      "email": "dinhthihanh@gmail.com",
      "address": "6 Tây Tựu, Bắc Từ Liêm",
      "district": "Bắc Từ Liêm",
      "lat": 21.0571,
      "lon": 105.7762,
      "total_orders": 3,
      "member_since": "2024-04-30",
      "password": "123456"
    },
    {
      "id": 1050,
      "name": "Lý Văn Hải",
      "phone": "0987001050",
      "email": "lyvanhai@gmail.com",
      "address": "57 Nguyễn Văn Linh, Hà Đông",
      "district": "Hà Đông",
      "lat": 20.9724,
      "lon": 105.7758,
      "total_orders": 10,
      "member_since": "2022-10-03",
      "password": "123456"
    },
    {
      "id": 1051,
      "name": "Võ Nhật Lan",
      "phone": "0987001051",
      "email": "vonhatlan1051@gmail.com",
      "address": "63 Nguyễn Tuân, Nam Từ Liêm",
      "district": "Nam Từ Liêm",
      "lat": 21.0125,
      "lon": 105.7833,
      "total_orders": 11,
      "member_since": "2022-08-25",
      "password": "123456"
    },
    {
      "id": 1052,
      "name": "Mai Hữu Tú",
      "phone": "0987001052",
      "email": "maihuutu1052@gmail.com",
      "address": "3 Nguyễn Xiển, Hai Bà Trưng",
      "district": "Hai Bà Trưng",
      "lat": 21.0097,
      "lon": 105.8486,
      "total_orders": 21,
      "member_since": "2024-03-22",
      "password": "123456"
    },
    {
      "id": 1053,
      "name": "Vũ Quang Vân",
      "phone": "0987001053",
      "email": "vuquangvan1053@gmail.com",
      "address": "159 Trần Phú, Long Biên",
      "district": "Long Biên",
      "lat": 21.0576,
      "lon": 105.8979,
      "total_orders": 27,
      "member_since": "2024-07-05",
      "password": "123456"
    },
    {
      "id": 1054,
      "name": "Bùi Minh Phúc",
      "phone": "0987001054",
      "email": "buiminhphuc1054@gmail.com",
      "address": "131 Kim Mã, Nam Từ Liêm",
      "district": "Nam Từ Liêm",
      "lat": 21.0038,
      "lon": 105.7781,
      "total_orders": 17,
      "member_since": "2023-03-23",
      "password": "123456"
    },
    {
      "id": 1055,
      "name": "Đỗ Ngọc Khang",
      "phone": "0987001055",
      "email": "dongockhang1055@gmail.com",
      "address": "90 Vĩnh Hưng, Nam Từ Liêm",
      "district": "Nam Từ Liêm",
      "lat": 21.0122,
      "lon": 105.7652,
      "total_orders": 0,
      "member_since": "2025-04-13",
      "password": "123456"
    },
    {
      "id": 1056,
      "name": "Đỗ Đức Trang",
      "phone": "0987001056",
      "email": "doductrang1056@gmail.com",
      "address": "24 Tây Sơn, Long Biên",
      "district": "Long Biên",
      "lat": 21.0392,
      "lon": 105.8809,
      "total_orders": 16,
      "member_since": "2021-04-11",
      "password": "123456"
    },
    {
      "id": 1057,
      "name": "Phạm Hải An",
      "phone": "0987001057",
      "email": "phamhaian1057@gmail.com",
      "address": "53 Nguyễn Khánh Toàn, Đống Đa",
      "district": "Đống Đa",
      "lat": 21.0188,
      "lon": 105.8351,
      "total_orders": 6,
      "member_since": "2024-04-26",
      "password": "123456"
    },
    {
      "id": 1058,
      "name": "Đỗ Thị Hà",
      "phone": "0987001058",
      "email": "dothiha1058@gmail.com",
      "address": "77 Phạm Văn Đồng, Tây Hồ",
      "district": "Tây Hồ",
      "lat": 21.0611,
      "lon": 105.8314,
      "total_orders": 21,
      "member_since": "2021-11-06",
      "password": "123456"
    },
    {
      "id": 1059,
      "name": "Mai Minh Lan",
      "phone": "0987001059",
      "email": "maiminhlan1059@gmail.com",
      "address": "112 Đội Cấn, Hoàn Kiếm",
      "district": "Hoàn Kiếm",
      "lat": 21.0275,
      "lon": 105.8483,
      "total_orders": 25,
      "member_since": "2022-11-15",
      "password": "123456"
    },
    {
      "id": 1060,
      "name": "Lương Anh Bình",
      "phone": "0987001060",
      "email": "luonganhbinh1060@gmail.com",
      "address": "150 Nguyễn Văn Cừ, Hà Đông",
      "district": "Hà Đông",
      "lat": 20.9591,
      "lon": 105.7733,
      "total_orders": 5,
      "member_since": "2024-03-02",
      "password": "123456"
    },
    {
      "id": 1061,
      "name": "Phạm Mạnh Dũng",
      "phone": "0987001061",
      "email": "phammanhdung1061@gmail.com",
      "address": "42 Trung Kính, Đống Đa",
      "district": "Đống Đa",
      "lat": 21.021,
      "lon": 105.8411,
      "total_orders": 7,
      "member_since": "2022-10-10",
      "password": "123456"
    },
    {
      "id": 1062,
      "name": "Phạm Hữu Tuấn",
      "phone": "0987001062",
      "email": "phamhuutuan1062@gmail.com",
      "address": "6 Xuân Thủy, Hai Bà Trưng",
      "district": "Hai Bà Trưng",
      "lat": 21.0185,
      "lon": 105.858,
      "total_orders": 28,
      "member_since": "2021-09-15",
      "password": "123456"
    },
    {
      "id": 1063,
      "name": "Hoàng Quang Mai",
      "phone": "0987001063",
      "email": "hoangquangmai1063@gmail.com",
      "address": "91 Phố Huế, Cầu Giấy",
      "district": "Cầu Giấy",
      "lat": 21.028,
      "lon": 105.8086,
      "total_orders": 0,
      "member_since": "2022-03-07",
      "password": "123456"
    },
    {
      "id": 1064,
      "name": "Đinh Minh Hải",
      "phone": "0987001064",
      "email": "dinhminhhai1064@gmail.com",
      "address": "10 Võ Chí Công, Đống Đa",
      "district": "Đống Đa",
      "lat": 21.0243,
      "lon": 105.8373,
      "total_orders": 19,
      "member_since": "2022-01-10",
      "password": "123456"
    },
    {
      "id": 1065,
      "name": "Bùi Thanh Khang",
      "phone": "0987001065",
      "email": "buithanhkhang1065@gmail.com",
      "address": "107 Lê Văn Lương, Hoàng Mai",
      "district": "Hoàng Mai",
      "lat": 20.9722,
      "lon": 105.8386,
      "total_orders": 21,
      "member_since": "2024-09-01",
      "password": "123456"
    },
    {
      "id": 1066,
      "name": "Đào Hồng Nhung",
      "phone": "0987001066",
      "email": "daohongnhung1066@gmail.com",
      "address": "18 Hồ Tùng Mậu, Ba Đình",
      "district": "Ba Đình",
      "lat": 21.0502,
      "lon": 105.8458,
      "total_orders": 30,
      "member_since": "2023-12-02",
      "password": "123456"
    },
    {
      "id": 1067,
      "name": "Đỗ Hồng Việt",
      "phone": "0987001067",
      "email": "dohongviet1067@gmail.com",
      "address": "79 Đội Cấn, Hoàng Mai",
      "district": "Hoàng Mai",
      "lat": 20.96,
      "lon": 105.8378,
      "total_orders": 26,
      "member_since": "2021-09-27",
      "password": "123456"
    },
    {
      "id": 1068,
      "name": "Đỗ Mạnh Quỳnh",
      "phone": "0987001068",
      "email": "domanhquynh1068@gmail.com",
      "address": "5 Lê Đức Thọ, Ba Đình",
      "district": "Ba Đình",
      "lat": 21.0284,
      "lon": 105.8366,
      "total_orders": 6,
      "member_since": "2022-06-02",
      "password": "123456"
    },
    {
      "id": 1069,
      "name": "Cao Văn Vân",
      "phone": "0987001069",
      "email": "caovanvan1069@gmail.com",
      "address": "3 Phạm Văn Đồng, Đống Đa",
      "district": "Đống Đa",
      "lat": 21.0096,
      "lon": 105.8321,
      "total_orders": 11,
      "member_since": "2024-01-26",
      "password": "123456"
    },
    {
      "id": 1070,
      "name": "Hồ Đức Khoa",
      "phone": "0987001070",
      "email": "hoduckhoa1070@gmail.com",
      "address": "33 Lạc Trung, Ba Đình",
      "district": "Ba Đình",
      "lat": 21.0279,
      "lon": 105.8356,
      "total_orders": 15,
      "member_since": "2021-02-02",
      "password": "123456"
    },
    {
      "id": 1071,
      "name": "Đặng Thu Khang",
      "phone": "0987001071",
      "email": "dangthukhang1071@gmail.com",
      "address": "149 Nguyễn Xiển, Long Biên",
      "district": "Long Biên",
      "lat": 21.0566,
      "lon": 105.908,
      "total_orders": 2,
      "member_since": "2023-07-14",
      "password": "123456"
    },
    {
      "id": 1072,
      "name": "Đỗ Khánh Minh",
      "phone": "0987001072",
      "email": "dokhanhminh1072@gmail.com",
      "address": "37 Tây Sơn, Hoàn Kiếm",
      "district": "Hoàn Kiếm",
      "lat": 21.0303,
      "lon": 105.8483,
      "total_orders": 26,
      "member_since": "2024-02-05",
      "password": "123456"
    },
    {
      "id": 1073,
      "name": "Tô Gia Trang",
      "phone": "0987001073",
      "email": "togiatrang1073@gmail.com",
      "address": "142 Tam Trinh, Đống Đa",
      "district": "Đống Đa",
      "lat": 21.0106,
      "lon": 105.8399,
      "total_orders": 29,
      "member_since": "2022-08-06",
      "password": "123456"
    },
    {
      "id": 1074,
      "name": "Đào Hồng Minh",
      "phone": "0987001074",
      "email": "daohongminh1074@gmail.com",
      "address": "125 Lò Đúc, Đống Đa",
      "district": "Đống Đa",
      "lat": 21.013,
      "lon": 105.8387,
      "total_orders": 27,
      "member_since": "2024-02-25",
      "password": "123456"
    },
    {
      "id": 1075,
      "name": "Lý Hải Tuyết",
      "phone": "0987001075",
      "email": "lyhaituyet1075@gmail.com",
      "address": "77 Cầu Bươu, Thanh Xuân",
      "district": "Thanh Xuân",
      "lat": 20.9827,
      "lon": 105.8092,
      "total_orders": 19,
      "member_since": "2023-08-20",
      "password": "123456"
    },
    {
      "id": 1076,
      "name": "Trịnh Thị Vân",
      "phone": "0987001076",
      "email": "trinhthivan1076@gmail.com",
      "address": "153 Yên Phụ, Hai Bà Trưng",
      "district": "Hai Bà Trưng",
      "lat": 20.9954,
      "lon": 105.8737,
      "total_orders": 28,
      "member_since": "2022-03-09",
      "password": "123456"
    },
    {
      "id": 1077,
      "name": "Trịnh Nhật Minh",
      "phone": "0987001077",
      "email": "trinhnhatminh1077@gmail.com",
      "address": "43 Đội Cấn, Hà Đông",
      "district": "Hà Đông",
      "lat": 20.9874,
      "lon": 105.7789,
      "total_orders": 17,
      "member_since": "2023-07-21",
      "password": "123456"
    },
    {
      "id": 1078,
      "name": "Tô Gia Việt",
      "phone": "0987001078",
      "email": "togiaviet1078@gmail.com",
      "address": "131 Nguyễn Tuân, Bắc Từ Liêm",
      "district": "Bắc Từ Liêm",
      "lat": 21.0714,
      "lon": 105.7925,
      "total_orders": 16,
      "member_since": "2024-08-02",
      "password": "123456"
    },
    {
      "id": 1079,
      "name": "Phan Khánh Phương",
      "phone": "0987001079",
      "email": "phankhanhphuong1079@gmail.com",
      "address": "128 Nguyễn Khánh Toàn, Thanh Xuân",
      "district": "Thanh Xuân",
      "lat": 20.9896,
      "lon": 105.803,
      "total_orders": 30,
      "member_since": "2025-09-27",
      "password": "123456"
    },
    {
      "id": 1080,
      "name": "Tạ Mạnh Mai",
      "phone": "0987001080",
      "email": "tamanhmai1080@gmail.com",
      "address": "99 Võ Chí Công, Bắc Từ Liêm",
      "district": "Bắc Từ Liêm",
      "lat": 21.0777,
      "lon": 105.788,
      "total_orders": 30,
      "member_since": "2023-02-27",
      "password": "123456"
    },
    {
      "id": 1081,
      "name": "Nguyễn Tiến Nhung",
      "phone": "0987001081",
      "email": "nguyentiennhung1081@gmail.com",
      "address": "92 Ngô Gia Tự, Hoàn Kiếm",
      "district": "Hoàn Kiếm",
      "lat": 21.0206,
      "lon": 105.8518,
      "total_orders": 14,
      "member_since": "2024-07-17",
      "password": "123456"
    },
    {
      "id": 1082,
      "name": "Đoàn Tuấn Ngân",
      "phone": "0987001082",
      "email": "doantuanngan1082@gmail.com",
      "address": "128 Hoàng Hoa Thám, Nam Từ Liêm",
      "district": "Nam Từ Liêm",
      "lat": 20.9894,
      "lon": 105.7714,
      "total_orders": 11,
      "member_since": "2024-06-08",
      "password": "123456"
    },
    {
      "id": 1083,
      "name": "Mai Hữu Nga",
      "phone": "0987001083",
      "email": "maihuunga1083@gmail.com",
      "address": "70 Lạc Trung, Ba Đình",
      "district": "Ba Đình",
      "lat": 21.0433,
      "lon": 105.841,
      "total_orders": 24,
      "member_since": "2025-06-08",
      "password": "123456"
    },
    {
      "id": 1084,
      "name": "Đào Bảo Nam",
      "phone": "0987001084",
      "email": "daobaonam1084@gmail.com",
      "address": "42 Lê Đức Thọ, Hai Bà Trưng",
      "district": "Hai Bà Trưng",
      "lat": 21.0059,
      "lon": 105.8728,
      "total_orders": 21,
      "member_since": "2025-09-26",
      "password": "123456"
    },
    {
      "id": 1085,
      "name": "Trịnh Tuấn Thảo",
      "phone": "0987001085",
      "email": "trinhtuanthao1085@gmail.com",
      "address": "48 Trung Kính, Tây Hồ",
      "district": "Tây Hồ",
      "lat": 21.0732,
      "lon": 105.8325,
      "total_orders": 0,
      "member_since": "2025-01-24",
      "password": "123456"
    },
    {
      "id": 1086,
      "name": "Chu Thanh Nga",
      "phone": "0987001086",
      "email": "chuthanhnga1086@gmail.com",
      "address": "17 Nguyễn Trãi, Cầu Giấy",
      "district": "Cầu Giấy",
      "lat": 21.0392,
      "lon": 105.7844,
      "total_orders": 19,
      "member_since": "2025-02-03",
      "password": "123456"
    },
    {
      "id": 1087,
      "name": "Hồ Văn Phúc",
      "phone": "0987001087",
      "email": "hovanphuc1087@gmail.com",
      "address": "62 Lĩnh Nam, Tây Hồ",
      "district": "Tây Hồ",
      "lat": 21.0492,
      "lon": 105.8324,
      "total_orders": 1,
      "member_since": "2024-09-27",
      "password": "123456"
    },
    {
      "id": 1088,
      "name": "Võ Hải Trung",
      "phone": "0987001088",
      "email": "vohaitrung1088@gmail.com",
      "address": "118 Kim Mã, Đống Đa",
      "district": "Đống Đa",
      "lat": 21.0083,
      "lon": 105.8272,
      "total_orders": 16,
      "member_since": "2024-07-14",
      "password": "123456"
    },
    {
      "id": 1089,
      "name": "Ngô Ngọc Hoài",
      "phone": "0987001089",
      "email": "ngongochoai1089@gmail.com",
      "address": "111 Nghi Tàm, Đống Đa",
      "district": "Đống Đa",
      "lat": 21.033,
      "lon": 105.8313,
      "total_orders": 26,
      "member_since": "2025-04-24",
      "password": "123456"
    },
    {
      "id": 1090,
      "name": "Đào Hải Khoa",
      "phone": "0987001090",
      "email": "daohaikhoa1090@gmail.com",
      "address": "112 Cầu Giấy, Nam Từ Liêm",
      "district": "Nam Từ Liêm",
      "lat": 21.0183,
      "lon": 105.7712,
      "total_orders": 16,
      "member_since": "2025-02-07",
      "password": "123456"
    },
    {
      "id": 1091,
      "name": "Ngô Mạnh Yến",
      "phone": "0987001091",
      "email": "ngomanhyen1091@gmail.com",
      "address": "52 Võ Chí Công, Cầu Giấy",
      "district": "Cầu Giấy",
      "lat": 21.0315,
      "lon": 105.7869,
      "total_orders": 23,
      "member_since": "2022-04-22",
      "password": "123456"
    },
    {
      "id": 1092,
      "name": "Trần Hoài Khoa",
      "phone": "0987001092",
      "email": "tranhoaikhoa1092@gmail.com",
      "address": "104 Nguyễn Khánh Toàn, Tây Hồ",
      "district": "Tây Hồ",
      "lat": 21.0647,
      "lon": 105.8222,
      "total_orders": 18,
      "member_since": "2023-05-07",
      "password": "123456"
    },
    {
      "id": 1093,
      "name": "Lý Nhật Trung",
      "phone": "0987001093",
      "email": "lynhattrung1093@gmail.com",
      "address": "120 Nguyễn Tuân, Cầu Giấy",
      "district": "Cầu Giấy",
      "lat": 21.0373,
      "lon": 105.7886,
      "total_orders": 0,
      "member_since": "2024-11-25",
      "password": "123456"
    },
    {
      "id": 1094,
      "name": "Lê Hải Trung",
      "phone": "0987001094",
      "email": "lehaitrung1094@gmail.com",
      "address": "3 Trần Phú, Thanh Xuân",
      "district": "Thanh Xuân",
      "lat": 21.0054,
      "lon": 105.816,
      "total_orders": 17,
      "member_since": "2024-02-10",
      "password": "123456"
    },
    {
      "id": 1095,
      "name": "Mai Nhật Hoa",
      "phone": "0987001095",
      "email": "mainhathoa1095@gmail.com",
      "address": "34 Minh Khai, Hà Đông",
      "district": "Hà Đông",
      "lat": 20.966,
      "lon": 105.7749,
      "total_orders": 20,
      "member_since": "2024-06-08",
      "password": "123456"
    },
    {
      "id": 1096,
      "name": "Nguyễn Xuân Hiếu",
      "phone": "0987001096",
      "email": "nguyenxuanhieu1096@gmail.com",
      "address": "154 Lạc Trung, Bắc Từ Liêm",
      "district": "Bắc Từ Liêm",
      "lat": 21.042,
      "lon": 105.7748,
      "total_orders": 9,
      "member_since": "2024-05-23",
      "password": "123456"
    },
    {
      "id": 1097,
      "name": "Bùi Xuân Dũng",
      "phone": "0987001097",
      "email": "buixuandung1097@gmail.com",
      "address": "39 Trung Kính, Thanh Xuân",
      "district": "Thanh Xuân",
      "lat": 21.0002,
      "lon": 105.8222,
      "total_orders": 6,
      "member_since": "2023-02-02",
      "password": "123456"
    },
    {
      "id": 1098,
      "name": "Võ Ngọc Hùng",
      "phone": "0987001098",
      "email": "vongochung1098@gmail.com",
      "address": "135 Xuân Thủy, Đống Đa",
      "district": "Đống Đa",
      "lat": 21.0158,
      "lon": 105.8293,
      "total_orders": 2,
      "member_since": "2025-09-25",
      "password": "123456"
    },
    {
      "id": 1099,
      "name": "Đặng Thị Long",
      "phone": "0987001099",
      "email": "dangthilong1099@gmail.com",
      "address": "75 Vĩnh Tuy, Ba Đình",
      "district": "Ba Đình",
      "lat": 21.0441,
      "lon": 105.8277,
      "total_orders": 0,
      "member_since": "2022-02-20",
      "password": "123456"
    },
    {
      "id": 1100,
      "name": "Mai Xuân Long",
      "phone": "0987001100",
      "email": "maixuanlong1100@gmail.com",
      "address": "133 Đội Cấn, Tây Hồ",
      "district": "Tây Hồ",
      "lat": 21.0731,
      "lon": 105.8038,
      "total_orders": 3,
      "member_since": "2024-02-17",
      "password": "123456"
    },
    {
      "id": 1101,
      "name": "Hoàng Bảo Nam",
      "phone": "0987001101",
      "email": "hoangbaonam1101@gmail.com",
      "address": "54 Nguyễn Lương Bằng, Long Biên",
      "district": "Long Biên",
      "lat": 21.0589,
      "lon": 105.8892,
      "total_orders": 20,
      "member_since": "2024-03-02",
      "password": "123456"
    },
    {
      "id": 1102,
      "name": "Lý Nhật Đạt",
      "phone": "0987001102",
      "email": "lynhatdat1102@gmail.com",
      "address": "10 Chùa Láng, Ba Đình",
      "district": "Ba Đình",
      "lat": 21.0427,
      "lon": 105.8336,
      "total_orders": 24,
      "member_since": "2024-02-05",
      "password": "123456"
    },
    {
      "id": 1103,
      "name": "Cao Thu Tú",
      "phone": "0987001103",
      "email": "caothutu1103@gmail.com",
      "address": "55 Trung Kính, Đống Đa",
      "district": "Đống Đa",
      "lat": 21.007,
      "lon": 105.8398,
      "total_orders": 18,
      "member_since": "2024-11-12",
      "password": "123456"
    },
    {
      "id": 1104,
      "name": "Lý Tuấn Trung",
      "phone": "0987001104",
      "email": "lytuantrung1104@gmail.com",
      "address": "6 Cổ Nhuế, Hoàn Kiếm",
      "district": "Hoàn Kiếm",
      "lat": 21.0279,
      "lon": 105.8559,
      "total_orders": 26,
      "member_since": "2022-05-07",
      "password": "123456"
    },
    {
      "id": 1105,
      "name": "Ngô Ngọc Hương",
      "phone": "0987001105",
      "email": "ngongochuong1105@gmail.com",
      "address": "156 Minh Khai, Long Biên",
      "district": "Long Biên",
      "lat": 21.0365,
      "lon": 105.9022,
      "total_orders": 19,
      "member_since": "2023-12-28",
      "password": "123456"
    },
    {
      "id": 1106,
      "name": "Lý Bảo Phúc",
      "phone": "0987001106",
      "email": "lybaophuc1106@gmail.com",
      "address": "73 Tam Trinh, Bắc Từ Liêm",
      "district": "Bắc Từ Liêm",
      "lat": 21.067,
      "lon": 105.7851,
      "total_orders": 1,
      "member_since": "2023-03-12",
      "password": "123456"
    },
    {
      "id": 1107,
      "name": "Phạm Hữu Yến",
      "phone": "0987001107",
      "email": "phamhuuyen1107@gmail.com",
      "address": "77 Trần Phú, Hoàng Mai",
      "district": "Hoàng Mai",
      "lat": 20.9679,
      "lon": 105.8649,
      "total_orders": 26,
      "member_since": "2024-06-18",
      "password": "123456"
    },
    {
      "id": 1108,
      "name": "Cao Anh Hoài",
      "phone": "0987001108",
      "email": "caoanhhoai1108@gmail.com",
      "address": "40 Trần Phú, Bắc Từ Liêm",
      "district": "Bắc Từ Liêm",
      "lat": 21.0712,
      "lon": 105.7939,
      "total_orders": 0,
      "member_since": "2021-08-09",
      "password": "123456"
    },
    {
      "id": 1109,
      "name": "Lê Hồng Nga",
      "phone": "0987001109",
      "email": "lehongnga1109@gmail.com",
      "address": "141 Tố Hữu, Đống Đa",
      "district": "Đống Đa",
      "lat": 21.028,
      "lon": 105.8465,
      "total_orders": 1,
      "member_since": "2024-10-23",
      "password": "123456"
    },
    {
      "id": 1110,
      "name": "Trần Hải Hoài",
      "phone": "0987001110",
      "email": "tranhaihoai1110@gmail.com",
      "address": "21 Văn Cao, Ba Đình",
      "district": "Ba Đình",
      "lat": 21.0473,
      "lon": 105.8211,
      "total_orders": 29,
      "member_since": "2021-11-19",
      "password": "123456"
    },
    {
      "id": 1111,
      "name": "Phan Khánh Tuyết",
      "phone": "0987001111",
      "email": "phankhanhtuyet1111@gmail.com",
      "address": "111 Âu Cơ, Đống Đa",
      "district": "Đống Đa",
      "lat": 21.0083,
      "lon": 105.8327,
      "total_orders": 20,
      "member_since": "2024-10-17",
      "password": "123456"
    },
    {
      "id": 1112,
      "name": "Cao Quang Lan",
      "phone": "0987001112",
      "email": "caoquanglan1112@gmail.com",
      "address": "118 Lê Văn Lương, Đống Đa",
      "district": "Đống Đa",
      "lat": 21.0143,
      "lon": 105.8238,
      "total_orders": 21,
      "member_since": "2024-02-08",
      "password": "123456"
    },
    {
      "id": 1113,
      "name": "Mai Thị Hiếu",
      "phone": "0987001113",
      "email": "maithihieu1113@gmail.com",
      "address": "83 Âu Cơ, Đống Đa",
      "district": "Đống Đa",
      "lat": 21.0114,
      "lon": 105.834,
      "total_orders": 17,
      "member_since": "2024-03-23",
      "password": "123456"
    },
    {
      "id": 1114,
      "name": "Hoàng Hồng Hiếu",
      "phone": "0987001114",
      "email": "hoanghonghieu1114@gmail.com",
      "address": "85 Phố Huế, Ba Đình",
      "district": "Ba Đình",
      "lat": 21.0485,
      "lon": 105.8313,
      "total_orders": 11,
      "member_since": "2022-08-06",
      "password": "123456"
    },
    {
      "id": 1115,
      "name": "Bùi Quang Vân",
      "phone": "0987001115",
      "email": "buiquangvan1115@gmail.com",
      "address": "128 Minh Khai, Hà Đông",
      "district": "Hà Đông",
      "lat": 20.9712,
      "lon": 105.7845,
      "total_orders": 18,
      "member_since": "2023-05-13",
      "password": "123456"
    },
    {
      "id": 1116,
      "name": "Chu Tiến Trí",
      "phone": "0987001116",
      "email": "chutientri1116@gmail.com",
      "address": "17 Giảng Võ, Bắc Từ Liêm",
      "district": "Bắc Từ Liêm",
      "lat": 21.06,
      "lon": 105.7847,
      "total_orders": 29,
      "member_since": "2023-02-10",
      "password": "123456"
    },
    {
      "id": 1117,
      "name": "Lương Quốc Hùng",
      "phone": "0987001117",
      "email": "luongquochung1117@gmail.com",
      "address": "110 Nguyễn Văn Cừ, Bắc Từ Liêm",
      "district": "Bắc Từ Liêm",
      "lat": 21.0573,
      "lon": 105.7697,
      "total_orders": 17,
      "member_since": "2025-12-13",
      "password": "123456"
    },
    {
      "id": 1118,
      "name": "Chu Minh Nam",
      "phone": "0987001118",
      "email": "chuminhnam1118@gmail.com",
      "address": "73 Nguyễn Trãi, Tây Hồ",
      "district": "Tây Hồ",
      "lat": 21.072,
      "lon": 105.8332,
      "total_orders": 29,
      "member_since": "2023-09-13",
      "password": "123456"
    },
    {
      "id": 1119,
      "name": "Tô Thị Hạnh",
      "phone": "0987001119",
      "email": "tothihanh1119@gmail.com",
      "address": "160 Trần Duy Hưng, Nam Từ Liêm",
      "district": "Nam Từ Liêm",
      "lat": 20.9946,
      "lon": 105.7574,
      "total_orders": 25,
      "member_since": "2023-05-04",
      "password": "123456"
    },
    {
      "id": 1120,
      "name": "Đào Gia Tuyết",
      "phone": "0987001120",
      "email": "daogiatuyet1120@gmail.com",
      "address": "16 Giải Phóng, Hoàng Mai",
      "district": "Hoàng Mai",
      "lat": 20.9584,
      "lon": 105.8714,
      "total_orders": 28,
      "member_since": "2023-01-12",
      "password": "123456"
    },
    {
      "id": 1121,
      "name": "Phạm Đức Tuấn",
      "phone": "0987001121",
      "email": "phamductuan1121@gmail.com",
      "address": "153 Tây Sơn, Cầu Giấy",
      "district": "Cầu Giấy",
      "lat": 21.0441,
      "lon": 105.7925,
      "total_orders": 22,
      "member_since": "2024-02-03",
      "password": "123456"
    },
    {
      "id": 1122,
      "name": "Đỗ Hoài Trung",
      "phone": "0987001122",
      "email": "dohoaitrung1122@gmail.com",
      "address": "90 Giảng Võ, Nam Từ Liêm",
      "district": "Nam Từ Liêm",
      "lat": 21.0082,
      "lon": 105.7601,
      "total_orders": 8,
      "member_since": "2022-05-24",
      "password": "123456"
    },
    {
      "id": 1123,
      "name": "Lương Quốc Hiếu",
      "phone": "0987001123",
      "email": "luongquochieu1123@gmail.com",
      "address": "112 Xã Đàn, Tây Hồ",
      "district": "Tây Hồ",
      "lat": 21.063,
      "lon": 105.8054,
      "total_orders": 30,
      "member_since": "2023-09-19",
      "password": "123456"
    },
    {
      "id": 1124,
      "name": "Lương Mạnh Huy",
      "phone": "0987001124",
      "email": "luongmanhhuy1124@gmail.com",
      "address": "102 Nguyễn Trãi, Hoàn Kiếm",
      "district": "Hoàn Kiếm",
      "lat": 21.0224,
      "lon": 105.8531,
      "total_orders": 15,
      "member_since": "2022-08-05",
      "password": "123456"
    },
    {
      "id": 1125,
      "name": "Đào Gia Ngân",
      "phone": "0987001125",
      "email": "daogiangan1125@gmail.com",
      "address": "109 Cầu Bươu, Cầu Giấy",
      "district": "Cầu Giấy",
      "lat": 21.0395,
      "lon": 105.8037,
      "total_orders": 12,
      "member_since": "2022-11-01",
      "password": "123456"
    },
    {
      "id": 1126,
      "name": "Nguyễn Bảo Châu",
      "phone": "0987001126",
      "email": "nguyenbaochau1126@gmail.com",
      "address": "57 Trung Kính, Hai Bà Trưng",
      "district": "Hai Bà Trưng",
      "lat": 20.9981,
      "lon": 105.8478,
      "total_orders": 17,
      "member_since": "2024-12-02",
      "password": "123456"
    },
    {
      "id": 1127,
      "name": "Trần Gia An",
      "phone": "0987001127",
      "email": "trangiaan1127@gmail.com",
      "address": "28 Nguyễn Trãi, Ba Đình",
      "district": "Ba Đình",
      "lat": 21.0273,
      "lon": 105.8445,
      "total_orders": 13,
      "member_since": "2023-10-28",
      "password": "123456"
    },
    {
      "id": 1128,
      "name": "Đỗ Bảo Tú",
      "phone": "0987001128",
      "email": "dobaotu1128@gmail.com",
      "address": "120 Minh Khai, Cầu Giấy",
      "district": "Cầu Giấy",
      "lat": 21.0382,
      "lon": 105.799,
      "total_orders": 23,
      "member_since": "2023-11-18",
      "password": "123456"
    },
    {
      "id": 1129,
      "name": "Đoàn Ngọc Linh",
      "phone": "0987001129",
      "email": "doanngoclinh1129@gmail.com",
      "address": "15 Võ Chí Công, Tây Hồ",
      "district": "Tây Hồ",
      "lat": 21.0517,
      "lon": 105.8182,
      "total_orders": 20,
      "member_since": "2023-03-03",
      "password": "123456"
    },
    {
      "id": 1130,
      "name": "Tạ Nhật Quân",
      "phone": "0987001130",
      "email": "tanhatquan1130@gmail.com",
      "address": "154 Tố Hữu, Nam Từ Liêm",
      "district": "Nam Từ Liêm",
      "lat": 21.0031,
      "lon": 105.7798,
      "total_orders": 0,
      "member_since": "2023-09-13",
      "password": "123456"
    },
    {
      "id": 1131,
      "name": "Hoàng Thu Dũng",
      "phone": "0987001131",
      "email": "hoangthudung1131@gmail.com",
      "address": "117 Hoàng Hoa Thám, Hoàng Mai",
      "district": "Hoàng Mai",
      "lat": 20.9808,
      "lon": 105.8434,
      "total_orders": 15,
      "member_since": "2021-11-01",
      "password": "123456"
    },
    {
      "id": 1132,
      "name": "Chu Anh Hùng",
      "phone": "0987001132",
      "email": "chuanhhung1132@gmail.com",
      "address": "158 Tố Hữu, Hoàng Mai",
      "district": "Hoàng Mai",
      "lat": 20.9606,
      "lon": 105.8676,
      "total_orders": 27,
      "member_since": "2023-09-23",
      "password": "123456"
    },
    {
      "id": 1133,
      "name": "Lý Bảo Việt",
      "phone": "0987001133",
      "email": "lybaoviet1133@gmail.com",
      "address": "154 Lĩnh Nam, Nam Từ Liêm",
      "district": "Nam Từ Liêm",
      "lat": 21.0206,
      "lon": 105.7806,
      "total_orders": 15,
      "member_since": "2023-10-03",
      "password": "123456"
    },
    {
      "id": 1134,
      "name": "Phạm Thanh Dũng",
      "phone": "0987001134",
      "email": "phamthanhdung1134@gmail.com",
      "address": "111 Quang Trung, Ba Đình",
      "district": "Ba Đình",
      "lat": 21.037,
      "lon": 105.8266,
      "total_orders": 20,
      "member_since": "2024-11-21",
      "password": "123456"
    },
    {
      "id": 1135,
      "name": "Hoàng Anh Thảo",
      "phone": "0987001135",
      "email": "hoanganhthao1135@gmail.com",
      "address": "6 Tam Trinh, Hoàn Kiếm",
      "district": "Hoàn Kiếm",
      "lat": 21.0247,
      "lon": 105.851,
      "total_orders": 4,
      "member_since": "2025-05-12",
      "password": "123456"
    },
    {
      "id": 1136,
      "name": "Hoàng Anh Ngân",
      "phone": "0987001136",
      "email": "hoanganhngan1136@gmail.com",
      "address": "114 Kim Mã, Đống Đa",
      "district": "Đống Đa",
      "lat": 21.0131,
      "lon": 105.8446,
      "total_orders": 9,
      "member_since": "2023-02-13",
      "password": "123456"
    },
    {
      "id": 1137,
      "name": "Lê Đức Tuấn",
      "phone": "0987001137",
      "email": "leductuan1137@gmail.com",
      "address": "96 Tam Trinh, Hoàng Mai",
      "district": "Hoàng Mai",
      "lat": 20.9803,
      "lon": 105.8606,
      "total_orders": 17,
      "member_since": "2023-04-13",
      "password": "123456"
    },
    {
      "id": 1138,
      "name": "Đặng Khánh Hà",
      "phone": "0987001138",
      "email": "dangkhanhha1138@gmail.com",
      "address": "108 Bạch Mai, Hai Bà Trưng",
      "district": "Hai Bà Trưng",
      "lat": 21.0004,
      "lon": 105.873,
      "total_orders": 22,
      "member_since": "2023-12-02",
      "password": "123456"
    },
    {
      "id": 1139,
      "name": "Hoàng Hữu Sơn",
      "phone": "0987001139",
      "email": "hoanghuuson1139@gmail.com",
      "address": "91 Võ Chí Công, Nam Từ Liêm",
      "district": "Nam Từ Liêm",
      "lat": 21.0133,
      "lon": 105.7784,
      "total_orders": 26,
      "member_since": "2024-05-20",
      "password": "123456"
    },
    {
      "id": 1140,
      "name": "Lê Minh Vinh",
      "phone": "0987001140",
      "email": "leminhvinh1140@gmail.com",
      "address": "23 Cầu Giấy, Đống Đa",
      "district": "Đống Đa",
      "lat": 21.0326,
      "lon": 105.8436,
      "total_orders": 20,
      "member_since": "2022-07-13",
      "password": "123456"
    },
    {
      "id": 1141,
      "name": "Phan Tiến Tú",
      "phone": "0987001141",
      "email": "phantientu1141@gmail.com",
      "address": "82 Nguyễn Tuân, Tây Hồ",
      "district": "Tây Hồ",
      "lat": 21.0579,
      "lon": 105.8276,
      "total_orders": 16,
      "member_since": "2023-12-25",
      "password": "123456"
    },
    {
      "id": 1142,
      "name": "Hồ Tuấn Ngân",
      "phone": "0987001142",
      "email": "hotuanngan1142@gmail.com",
      "address": "129 Ngô Gia Tự, Hoàn Kiếm",
      "district": "Hoàn Kiếm",
      "lat": 21.0218,
      "lon": 105.8453,
      "total_orders": 30,
      "member_since": "2023-02-20",
      "password": "123456"
    },
    {
      "id": 1143,
      "name": "Hồ Tiến Phúc",
      "phone": "0987001143",
      "email": "hotienphuc1143@gmail.com",
      "address": "23 Phạm Văn Đồng, Hai Bà Trưng",
      "district": "Hai Bà Trưng",
      "lat": 20.999,
      "lon": 105.869,
      "total_orders": 6,
      "member_since": "2023-05-19",
      "password": "123456"
    },
    {
      "id": 1144,
      "name": "Ngô Khánh Linh",
      "phone": "0987001144",
      "email": "ngokhanhlinh1144@gmail.com",
      "address": "7 Phương Liệt, Tây Hồ",
      "district": "Tây Hồ",
      "lat": 21.0685,
      "lon": 105.8074,
      "total_orders": 22,
      "member_since": "2022-01-18",
      "password": "123456"
    },
    {
      "id": 1145,
      "name": "Dương Ngọc Lan",
      "phone": "0987001145",
      "email": "duongngoclan1145@gmail.com",
      "address": "159 Lê Đức Thọ, Cầu Giấy",
      "district": "Cầu Giấy",
      "lat": 21.0209,
      "lon": 105.8019,
      "total_orders": 7,
      "member_since": "2021-11-09",
      "password": "123456"
    },
    {
      "id": 1146,
      "name": "Cao Văn Yến",
      "phone": "0987001146",
      "email": "caovanyen1146@gmail.com",
      "address": "144 Võ Chí Công, Thanh Xuân",
      "district": "Thanh Xuân",
      "lat": 21.0077,
      "lon": 105.8275,
      "total_orders": 2,
      "member_since": "2024-05-23",
      "password": "123456"
    },
    {
      "id": 1147,
      "name": "Bùi Khánh Phúc",
      "phone": "0987001147",
      "email": "buikhanhphuc1147@gmail.com",
      "address": "19 Tây Sơn, Hai Bà Trưng",
      "district": "Hai Bà Trưng",
      "lat": 21.0188,
      "lon": 105.8586,
      "total_orders": 6,
      "member_since": "2024-12-23",
      "password": "123456"
    },
    {
      "id": 1148,
      "name": "Lương Mạnh Vân",
      "phone": "0987001148",
      "email": "luongmanhvan1148@gmail.com",
      "address": "125 Nguyễn Tuân, Bắc Từ Liêm",
      "district": "Bắc Từ Liêm",
      "lat": 21.0774,
      "lon": 105.7718,
      "total_orders": 2,
      "member_since": "2024-07-02",
      "password": "123456"
    },
    {
      "id": 1149,
      "name": "Đinh Gia Bình",
      "phone": "0987001149",
      "email": "dinhgiabinh1149@gmail.com",
      "address": "119 Chùa Láng, Cầu Giấy",
      "district": "Cầu Giấy",
      "lat": 21.026,
      "lon": 105.7923,
      "total_orders": 16,
      "member_since": "2025-11-24",
      "password": "123456"
    },
    {
      "id": 1150,
      "name": "Đoàn Hải Quỳnh",
      "phone": "0987001150",
      "email": "doanhaiquynh1150@gmail.com",
      "address": "68 Xuân Thủy, Thanh Xuân",
      "district": "Thanh Xuân",
      "lat": 21.0004,
      "lon": 105.8054,
      "total_orders": 29,
      "member_since": "2025-05-25",
      "password": "123456"
    },
    {
      "id": 1151,
      "name": "Cao Khánh Nam",
      "phone": "0987001151",
      "email": "caokhanhnam1151@gmail.com",
      "address": "24 Nguyễn Trãi, Hoàng Mai",
      "district": "Hoàng Mai",
      "lat": 20.9762,
      "lon": 105.8527,
      "total_orders": 17,
      "member_since": "2023-11-21",
      "password": "123456"
    },
    {
      "id": 1152,
      "name": "Đoàn Tuấn Nhung",
      "phone": "0987001152",
      "email": "doantuannhung1152@gmail.com",
      "address": "117 Nguyễn Văn Cừ, Tây Hồ",
      "district": "Tây Hồ",
      "lat": 21.0599,
      "lon": 105.8088,
      "total_orders": 30,
      "member_since": "2024-04-21",
      "password": "123456"
    },
    {
      "id": 1153,
      "name": "Lê Hồng Sơn",
      "phone": "0987001153",
      "email": "lehongson1153@gmail.com",
      "address": "10 Nghi Tàm, Long Biên",
      "district": "Long Biên",
      "lat": 21.0623,
      "lon": 105.8962,
      "total_orders": 22,
      "member_since": "2024-04-04",
      "password": "123456"
    },
    {
      "id": 1154,
      "name": "Tô Quốc Phương",
      "phone": "0987001154",
      "email": "toquocphuong1154@gmail.com",
      "address": "74 Hoàng Hoa Thám, Tây Hồ",
      "district": "Tây Hồ",
      "lat": 21.0804,
      "lon": 105.8058,
      "total_orders": 16,
      "member_since": "2023-08-17",
      "password": "123456"
    },
    {
      "id": 1155,
      "name": "Trịnh Nhật Tú",
      "phone": "0987001155",
      "email": "trinhnhattu1155@gmail.com",
      "address": "19 Nguyễn Khánh Toàn, Hà Đông",
      "district": "Hà Đông",
      "lat": 20.951,
      "lon": 105.7724,
      "total_orders": 10,
      "member_since": "2023-03-17",
      "password": "123456"
    },
    {
      "id": 1156,
      "name": "Vũ Khánh Tuyết",
      "phone": "0987001156",
      "email": "vukhanhtuyet1156@gmail.com",
      "address": "159 Võ Chí Công, Nam Từ Liêm",
      "district": "Nam Từ Liêm",
      "lat": 20.992,
      "lon": 105.7872,
      "total_orders": 10,
      "member_since": "2022-07-01",
      "password": "123456"
    },
    {
      "id": 1157,
      "name": "Đào Mạnh Tài",
      "phone": "0987001157",
      "email": "daomanhtai1157@gmail.com",
      "address": "40 Âu Cơ, Nam Từ Liêm",
      "district": "Nam Từ Liêm",
      "lat": 21.0007,
      "lon": 105.7754,
      "total_orders": 6,
      "member_since": "2023-12-10",
      "password": "123456"
    },
    {
      "id": 1158,
      "name": "Đinh Quốc Khoa",
      "phone": "0987001158",
      "email": "dinhquockhoa1158@gmail.com",
      "address": "129 Vĩnh Hưng, Ba Đình",
      "district": "Ba Đình",
      "lat": 21.0428,
      "lon": 105.8421,
      "total_orders": 30,
      "member_since": "2023-08-13",
      "password": "123456"
    },
    {
      "id": 1159,
      "name": "Mai Minh Ngọc",
      "phone": "0987001159",
      "email": "maiminhngoc1159@gmail.com",
      "address": "101 Quang Trung, Hoàng Mai",
      "district": "Hoàng Mai",
      "lat": 20.9903,
      "lon": 105.8385,
      "total_orders": 4,
      "member_since": "2022-01-03",
      "password": "123456"
    },
    {
      "id": 1160,
      "name": "Tô Tuấn Huy",
      "phone": "0987001160",
      "email": "totuanhuy1160@gmail.com",
      "address": "27 Tam Trinh, Long Biên",
      "district": "Long Biên",
      "lat": 21.0414,
      "lon": 105.902,
      "total_orders": 11,
      "member_since": "2024-01-07",
      "password": "123456"
    },
    {
      "id": 1161,
      "name": "Cao Hồng Thảo",
      "phone": "0987001161",
      "email": "caohongthao1161@gmail.com",
      "address": "44 Nguyễn Hoàng Tôn, Nam Từ Liêm",
      "district": "Nam Từ Liêm",
      "lat": 21.0201,
      "lon": 105.7828,
      "total_orders": 28,
      "member_since": "2023-08-10",
      "password": "123456"
    },
    {
      "id": 1162,
      "name": "Đinh Tiến Hoa",
      "phone": "0987001162",
      "email": "dinhtienhoa1162@gmail.com",
      "address": "102 Nguyễn Xiển, Hoàn Kiếm",
      "district": "Hoàn Kiếm",
      "lat": 21.036,
      "lon": 105.8589,
      "total_orders": 19,
      "member_since": "2023-12-18",
      "password": "123456"
    },
    {
      "id": 1163,
      "name": "Võ Khánh Khang",
      "phone": "0987001163",
      "email": "vokhanhkhang1163@gmail.com",
      "address": "17 Phương Liệt, Bắc Từ Liêm",
      "district": "Bắc Từ Liêm",
      "lat": 21.0584,
      "lon": 105.7868,
      "total_orders": 21,
      "member_since": "2022-04-28",
      "password": "123456"
    },
    {
      "id": 1164,
      "name": "Đặng Quốc Trang",
      "phone": "0987001164",
      "email": "dangquoctrang1164@gmail.com",
      "address": "139 Nguyễn Hoàng Tôn, Đống Đa",
      "district": "Đống Đa",
      "lat": 21.0112,
      "lon": 105.828,
      "total_orders": 21,
      "member_since": "2023-10-17",
      "password": "123456"
    },
    {
      "id": 1165,
      "name": "Tạ Tiến Đức",
      "phone": "0987001165",
      "email": "tatienduc1165@gmail.com",
      "address": "142 Âu Cơ, Cầu Giấy",
      "district": "Cầu Giấy",
      "lat": 21.0389,
      "lon": 105.7837,
      "total_orders": 15,
      "member_since": "2024-06-07",
      "password": "123456"
    },
    {
      "id": 1166,
      "name": "Trịnh Hữu Vinh",
      "phone": "0987001166",
      "email": "trinhhuuvinh1166@gmail.com",
      "address": "26 Phạm Văn Đồng, Nam Từ Liêm",
      "district": "Nam Từ Liêm",
      "lat": 20.9978,
      "lon": 105.7693,
      "total_orders": 23,
      "member_since": "2021-05-16",
      "password": "123456"
    },
    {
      "id": 1167,
      "name": "Trần Anh Sơn",
      "phone": "0987001167",
      "email": "trananhson1167@gmail.com",
      "address": "46 Thái Hà, Long Biên",
      "district": "Long Biên",
      "lat": 21.0667,
      "lon": 105.8814,
      "total_orders": 1,
      "member_since": "2023-10-15",
      "password": "123456"
    },
    {
      "id": 1168,
      "name": "Tạ Xuân Tài",
      "phone": "0987001168",
      "email": "taxuantai1168@gmail.com",
      "address": "91 Đinh Tiên Hoàng, Hoàng Mai",
      "district": "Hoàng Mai",
      "lat": 20.9876,
      "lon": 105.8409,
      "total_orders": 11,
      "member_since": "2023-11-16",
      "password": "123456"
    },
    {
      "id": 1169,
      "name": "Hoàng Quốc Phương",
      "phone": "0987001169",
      "email": "hoangquocphuong1169@gmail.com",
      "address": "149 Chùa Láng, Ba Đình",
      "district": "Ba Đình",
      "lat": 21.0498,
      "lon": 105.8341,
      "total_orders": 21,
      "member_since": "2021-08-15",
      "password": "123456"
    },
    {
      "id": 1170,
      "name": "Đặng Thu Tuấn",
      "phone": "0987001170",
      "email": "dangthutuan1170@gmail.com",
      "address": "155 Nguyễn Lương Bằng, Hoàn Kiếm",
      "district": "Hoàn Kiếm",
      "lat": 21.0298,
      "lon": 105.8484,
      "total_orders": 1,
      "member_since": "2024-09-06",
      "password": "123456"
    },
    {
      "id": 1171,
      "name": "Đào Hữu Long",
      "phone": "0987001171",
      "email": "daohuulong1171@gmail.com",
      "address": "15 Xã Đàn, Thanh Xuân",
      "district": "Thanh Xuân",
      "lat": 20.9914,
      "lon": 105.8227,
      "total_orders": 19,
      "member_since": "2023-03-08",
      "password": "123456"
    },
    {
      "id": 1172,
      "name": "Trần Tuấn Ngọc",
      "phone": "0987001172",
      "email": "trantuanngoc1172@gmail.com",
      "address": "66 Đinh Tiên Hoàng, Hoàng Mai",
      "district": "Hoàng Mai",
      "lat": 20.9896,
      "lon": 105.8442,
      "total_orders": 19,
      "member_since": "2023-10-03",
      "password": "123456"
    },
    {
      "id": 1173,
      "name": "Hoàng Đức Phương",
      "phone": "0987001173",
      "email": "hoangducphuong1173@gmail.com",
      "address": "151 Lò Đúc, Đống Đa",
      "district": "Đống Đa",
      "lat": 21.0275,
      "lon": 105.8382,
      "total_orders": 28,
      "member_since": "2023-11-27",
      "password": "123456"
    },
    {
      "id": 1174,
      "name": "Lê Minh Thảo",
      "phone": "0987001174",
      "email": "leminhthao1174@gmail.com",
      "address": "140 Cổ Nhuế, Đống Đa",
      "district": "Đống Đa",
      "lat": 21.0111,
      "lon": 105.8248,
      "total_orders": 29,
      "member_since": "2023-04-26",
      "password": "123456"
    },
    {
      "id": 1175,
      "name": "Hồ Thị Vân",
      "phone": "0987001175",
      "email": "hothivan1175@gmail.com",
      "address": "45 Tân Mai, Nam Từ Liêm",
      "district": "Nam Từ Liêm",
      "lat": 20.9973,
      "lon": 105.7726,
      "total_orders": 8,
      "member_since": "2022-11-10",
      "password": "123456"
    },
    {
      "id": 1176,
      "name": "Hoàng Minh Hạnh",
      "phone": "0987001176",
      "email": "hoangminhhanh1176@gmail.com",
      "address": "137 Ngô Gia Tự, Hoàn Kiếm",
      "district": "Hoàn Kiếm",
      "lat": 21.0207,
      "lon": 105.8515,
      "total_orders": 15,
      "member_since": "2024-10-08",
      "password": "123456"
    },
    {
      "id": 1177,
      "name": "Phạm Gia Hà",
      "phone": "0987001177",
      "email": "phamgiaha1177@gmail.com",
      "address": "48 Nghi Tàm, Nam Từ Liêm",
      "district": "Nam Từ Liêm",
      "lat": 20.9891,
      "lon": 105.7872,
      "total_orders": 23,
      "member_since": "2025-11-26",
      "password": "123456"
    },
    {
      "id": 1178,
      "name": "Đỗ Anh Hoài",
      "phone": "0987001178",
      "email": "doanhhoai1178@gmail.com",
      "address": "4 Hàng Đào, Nam Từ Liêm",
      "district": "Nam Từ Liêm",
      "lat": 20.9972,
      "lon": 105.7827,
      "total_orders": 6,
      "member_since": "2024-01-19",
      "password": "123456"
    },
    {
      "id": 1179,
      "name": "Hồ Thu Lan",
      "phone": "0987001179",
      "email": "hothulan1179@gmail.com",
      "address": "72 Đội Cấn, Ba Đình",
      "district": "Ba Đình",
      "lat": 21.0359,
      "lon": 105.8255,
      "total_orders": 25,
      "member_since": "2025-01-14",
      "password": "123456"
    },
    {
      "id": 1180,
      "name": "Vũ Đức Nga",
      "phone": "0987001180",
      "email": "vuducnga1180@gmail.com",
      "address": "147 Lĩnh Nam, Nam Từ Liêm",
      "district": "Nam Từ Liêm",
      "lat": 20.9951,
      "lon": 105.78,
      "total_orders": 3,
      "member_since": "2021-03-28",
      "password": "123456"
    },
    {
      "id": 1181,
      "name": "Võ Hải Yến",
      "phone": "0987001181",
      "email": "vohaiyen1181@gmail.com",
      "address": "140 Giải Phóng, Nam Từ Liêm",
      "district": "Nam Từ Liêm",
      "lat": 21.0065,
      "lon": 105.7776,
      "total_orders": 12,
      "member_since": "2022-06-20",
      "password": "123456"
    },
    {
      "id": 1182,
      "name": "Vũ Quốc Yến",
      "phone": "0987001182",
      "email": "vuquocyen1182@gmail.com",
      "address": "61 Cổ Nhuế, Ba Đình",
      "district": "Ba Đình",
      "lat": 21.0293,
      "lon": 105.8364,
      "total_orders": 0,
      "member_since": "2025-02-10",
      "password": "123456"
    },
    {
      "id": 1183,
      "name": "Trần Anh Huy",
      "phone": "0987001183",
      "email": "trananhhuy1183@gmail.com",
      "address": "110 Nguyễn Trãi, Thanh Xuân",
      "district": "Thanh Xuân",
      "lat": 21.0069,
      "lon": 105.8032,
      "total_orders": 4,
      "member_since": "2024-01-06",
      "password": "123456"
    },
    {
      "id": 1184,
      "name": "Chu Anh Hiếu",
      "phone": "0987001184",
      "email": "chuanhhieu1184@gmail.com",
      "address": "141 Phố Huế, Nam Từ Liêm",
      "district": "Nam Từ Liêm",
      "lat": 21.0223,
      "lon": 105.7849,
      "total_orders": 9,
      "member_since": "2025-01-07",
      "password": "123456"
    },
    {
      "id": 1185,
      "name": "Ngô Ngọc Việt",
      "phone": "0987001185",
      "email": "ngongocviet1185@gmail.com",
      "address": "148 Phố Huế, Long Biên",
      "district": "Long Biên",
      "lat": 21.0406,
      "lon": 105.8792,
      "total_orders": 8,
      "member_since": "2022-03-05",
      "password": "123456"
    },
    {
      "id": 1186,
      "name": "Hoàng Thu Hà",
      "phone": "0987001186",
      "email": "hoangthuha1186@gmail.com",
      "address": "47 Đội Cấn, Ba Đình",
      "district": "Ba Đình",
      "lat": 21.0504,
      "lon": 105.8289,
      "total_orders": 5,
      "member_since": "2025-11-02",
      "password": "123456"
    },
    {
      "id": 1187,
      "name": "Vũ Tiến Thảo",
      "phone": "0987001187",
      "email": "vutienthao1187@gmail.com",
      "address": "154 Thái Hà, Hoàn Kiếm",
      "district": "Hoàn Kiếm",
      "lat": 21.0279,
      "lon": 105.8467,
      "total_orders": 17,
      "member_since": "2024-02-12",
      "password": "123456"
    },
    {
      "id": 1188,
      "name": "Đặng Hữu Nam",
      "phone": "0987001188",
      "email": "danghuunam1188@gmail.com",
      "address": "65 Vĩnh Hưng, Bắc Từ Liêm",
      "district": "Bắc Từ Liêm",
      "lat": 21.0702,
      "lon": 105.777,
      "total_orders": 0,
      "member_since": "2022-08-16",
      "password": "123456"
    },
    {
      "id": 1189,
      "name": "Tô Hoài Ngân",
      "phone": "0987001189",
      "email": "tohoaingan1189@gmail.com",
      "address": "141 Cổ Nhuế, Bắc Từ Liêm",
      "district": "Bắc Từ Liêm",
      "lat": 21.045,
      "lon": 105.7847,
      "total_orders": 23,
      "member_since": "2023-11-27",
      "password": "123456"
    },
    {
      "id": 1190,
      "name": "Lương Thị Hà",
      "phone": "0987001190",
      "email": "luongthiha1190@gmail.com",
      "address": "84 Hàng Đào, Bắc Từ Liêm",
      "district": "Bắc Từ Liêm",
      "lat": 21.0469,
      "lon": 105.7869,
      "total_orders": 15,
      "member_since": "2023-07-21",
      "password": "123456"
    },
    {
      "id": 1191,
      "name": "Dương Hoài Tú",
      "phone": "0987001191",
      "email": "duonghoaitu1191@gmail.com",
      "address": "124 Giải Phóng, Đống Đa",
      "district": "Đống Đa",
      "lat": 21.0312,
      "lon": 105.8415,
      "total_orders": 26,
      "member_since": "2023-09-04",
      "password": "123456"
    },
    {
      "id": 1192,
      "name": "Hồ Hữu Vân",
      "phone": "0987001192",
      "email": "hohuuvan1192@gmail.com",
      "address": "141 Hoàng Hoa Thám, Tây Hồ",
      "district": "Tây Hồ",
      "lat": 21.083,
      "lon": 105.835,
      "total_orders": 11,
      "member_since": "2025-10-11",
      "password": "123456"
    },
    {
      "id": 1193,
      "name": "Nguyễn Thu Quỳnh",
      "phone": "0987001193",
      "email": "nguyenthuquynh1193@gmail.com",
      "address": "10 Lĩnh Nam, Long Biên",
      "district": "Long Biên",
      "lat": 21.0487,
      "lon": 105.8786,
      "total_orders": 17,
      "member_since": "2023-05-04",
      "password": "123456"
    },
    {
      "id": 1194,
      "name": "Tạ Bảo Trí",
      "phone": "0987001194",
      "email": "tabaotri1194@gmail.com",
      "address": "149 Giảng Võ, Cầu Giấy",
      "district": "Cầu Giấy",
      "lat": 21.0228,
      "lon": 105.808,
      "total_orders": 8,
      "member_since": "2024-08-06",
      "password": "123456"
    },
    {
      "id": 1195,
      "name": "Tô Bảo Phương",
      "phone": "0987001195",
      "email": "tobaophuong1195@gmail.com",
      "address": "33 Hàng Đào, Bắc Từ Liêm",
      "district": "Bắc Từ Liêm",
      "lat": 21.0511,
      "lon": 105.7667,
      "total_orders": 2,
      "member_since": "2025-11-05",
      "password": "123456"
    },
    {
      "id": 1196,
      "name": "Tạ Thu Việt",
      "phone": "0987001196",
      "email": "tathuviet1196@gmail.com",
      "address": "115 Đinh Tiên Hoàng, Hoàng Mai",
      "district": "Hoàng Mai",
      "lat": 20.9742,
      "lon": 105.8508,
      "total_orders": 2,
      "member_since": "2022-01-11",
      "password": "123456"
    },
    {
      "id": 1197,
      "name": "Đào Thanh Trí",
      "phone": "0987001197",
      "email": "daothanhtri1197@gmail.com",
      "address": "147 Thái Hà, Thanh Xuân",
      "district": "Thanh Xuân",
      "lat": 21.0006,
      "lon": 105.8071,
      "total_orders": 12,
      "member_since": "2024-09-26",
      "password": "123456"
    },
    {
      "id": 1198,
      "name": "Đỗ Đức Hương",
      "phone": "0987001198",
      "email": "doduchuong1198@gmail.com",
      "address": "85 Vĩnh Hưng, Long Biên",
      "district": "Long Biên",
      "lat": 21.0729,
      "lon": 105.911,
      "total_orders": 15,
      "member_since": "2022-08-11",
      "password": "123456"
    },
    {
      "id": 1199,
      "name": "Đoàn Văn Tài",
      "phone": "0987001199",
      "email": "doanvantai1199@gmail.com",
      "address": "136 Thái Hà, Hoàng Mai",
      "district": "Hoàng Mai",
      "lat": 20.9708,
      "lon": 105.8574,
      "total_orders": 9,
      "member_since": "2025-10-15",
      "password": "123456"
    },
    {
      "id": 1200,
      "name": "Trần Minh Phúc",
      "phone": "0987001200",
      "email": "tranminhphuc1200@gmail.com",
      "address": "52 Tam Trinh, Thanh Xuân",
      "district": "Thanh Xuân",
      "lat": 21.0027,
      "lon": 105.827,
      "total_orders": 15,
      "member_since": "2024-03-23",
      "password": "123456"
    },
    {
      "id": 1201,
      "name": "Đinh Thu Vân",
      "phone": "0987001201",
      "email": "dinhthuvan1201@gmail.com",
      "address": "114 Trần Phú, Hoàn Kiếm",
      "district": "Hoàn Kiếm",
      "lat": 21.0367,
      "lon": 105.8513,
      "total_orders": 14,
      "member_since": "2023-11-15",
      "password": "123456"
    },
    {
      "id": 1202,
      "name": "Dương Thị Tài",
      "phone": "0987001202",
      "email": "duongthitai1202@gmail.com",
      "address": "12 Phương Liệt, Đống Đa",
      "district": "Đống Đa",
      "lat": 21.0316,
      "lon": 105.8433,
      "total_orders": 25,
      "member_since": "2023-02-01",
      "password": "123456"
    },
    {
      "id": 1203,
      "name": "Tô Tuấn Hùng",
      "phone": "0987001203",
      "email": "totuanhung1203@gmail.com",
      "address": "82 Nguyễn Lương Bằng, Hà Đông",
      "district": "Hà Đông",
      "lat": 20.9599,
      "lon": 105.7703,
      "total_orders": 30,
      "member_since": "2023-04-09",
      "password": "123456"
    },
    {
      "id": 1204,
      "name": "Hồ Hoài Lan",
      "phone": "0987001204",
      "email": "hohoailan1204@gmail.com",
      "address": "128 Văn Cao, Long Biên",
      "district": "Long Biên",
      "lat": 21.0716,
      "lon": 105.9136,
      "total_orders": 2,
      "member_since": "2023-04-18",
      "password": "123456"
    },
    {
      "id": 1205,
      "name": "Dương Quang Giang",
      "phone": "0987001205",
      "email": "duongquanggiang1205@gmail.com",
      "address": "68 Tố Hữu, Cầu Giấy",
      "district": "Cầu Giấy",
      "lat": 21.0222,
      "lon": 105.7933,
      "total_orders": 5,
      "member_since": "2024-06-20",
      "password": "123456"
    },
    {
      "id": 1206,
      "name": "Đoàn Tiến Sơn",
      "phone": "0987001206",
      "email": "doantienson1206@gmail.com",
      "address": "158 Minh Khai, Cầu Giấy",
      "district": "Cầu Giấy",
      "lat": 21.0216,
      "lon": 105.7948,
      "total_orders": 2,
      "member_since": "2024-02-07",
      "password": "123456"
    },
    {
      "id": 1207,
      "name": "Hoàng Quang Bình",
      "phone": "0987001207",
      "email": "hoangquangbinh1207@gmail.com",
      "address": "3 Xuân Thủy, Cầu Giấy",
      "district": "Cầu Giấy",
      "lat": 21.0173,
      "lon": 105.788,
      "total_orders": 22,
      "member_since": "2021-10-21",
      "password": "123456"
    },
    {
      "id": 1208,
      "name": "Phan Mạnh Hương",
      "phone": "0987001208",
      "email": "phanmanhhuong1208@gmail.com",
      "address": "107 Nguyễn Xiển, Bắc Từ Liêm",
      "district": "Bắc Từ Liêm",
      "lat": 21.0706,
      "lon": 105.7949,
      "total_orders": 8,
      "member_since": "2023-10-02",
      "password": "123456"
    },
    {
      "id": 1209,
      "name": "Lương Gia Trung",
      "phone": "0987001209",
      "email": "luonggiatrung1209@gmail.com",
      "address": "2 Phương Liệt, Hai Bà Trưng",
      "district": "Hai Bà Trưng",
      "lat": 21.0135,
      "lon": 105.8534,
      "total_orders": 20,
      "member_since": "2022-10-21",
      "password": "123456"
    },
    {
      "id": 1210,
      "name": "Bùi Quang Quỳnh",
      "phone": "0987001210",
      "email": "buiquangquynh1210@gmail.com",
      "address": "113 Văn Cao, Long Biên",
      "district": "Long Biên",
      "lat": 21.0468,
      "lon": 105.9089,
      "total_orders": 2,
      "member_since": "2023-05-04",
      "password": "123456"
    },
    {
      "id": 1211,
      "name": "Chu Ngọc Vinh",
      "phone": "0987001211",
      "email": "chungocvinh1211@gmail.com",
      "address": "25 Nghi Tàm, Tây Hồ",
      "district": "Tây Hồ",
      "lat": 21.065,
      "lon": 105.8302,
      "total_orders": 29,
      "member_since": "2023-09-22",
      "password": "123456"
    },
    {
      "id": 1212,
      "name": "Hồ Đức Ngân",
      "phone": "0987001212",
      "email": "hoducngan1212@gmail.com",
      "address": "17 Nghi Tàm, Đống Đa",
      "district": "Đống Đa",
      "lat": 21.0275,
      "lon": 105.8389,
      "total_orders": 5,
      "member_since": "2021-02-19",
      "password": "123456"
    },
    {
      "id": 1213,
      "name": "Bùi Hoài Vinh",
      "phone": "0987001213",
      "email": "buihoaivinh1213@gmail.com",
      "address": "28 Nguyễn Văn Linh, Đống Đa",
      "district": "Đống Đa",
      "lat": 21.0138,
      "lon": 105.8381,
      "total_orders": 5,
      "member_since": "2024-01-15",
      "password": "123456"
    },
    {
      "id": 1214,
      "name": "Đặng Thu Tuấn",
      "phone": "0987001214",
      "email": "dangthutuan1214@gmail.com",
      "address": "81 Tây Sơn, Hoàn Kiếm",
      "district": "Hoàn Kiếm",
      "lat": 21.0236,
      "lon": 105.8494,
      "total_orders": 5,
      "member_since": "2024-01-10",
      "password": "123456"
    },
    {
      "id": 1215,
      "name": "Mai Xuân Tuyết",
      "phone": "0987001215",
      "email": "maixuantuyet1215@gmail.com",
      "address": "65 Bạch Mai, Thanh Xuân",
      "district": "Thanh Xuân",
      "lat": 21.0062,
      "lon": 105.8121,
      "total_orders": 27,
      "member_since": "2024-08-03",
      "password": "123456"
    },
    {
      "id": 1216,
      "name": "Vũ Hữu Tú",
      "phone": "0987001216",
      "email": "vuhuutu1216@gmail.com",
      "address": "75 Trần Phú, Tây Hồ",
      "district": "Tây Hồ",
      "lat": 21.0741,
      "lon": 105.8138,
      "total_orders": 5,
      "member_since": "2023-09-08",
      "password": "123456"
    },
    {
      "id": 1217,
      "name": "Đỗ Thị An",
      "phone": "0987001217",
      "email": "dothian1217@gmail.com",
      "address": "97 Minh Khai, Long Biên",
      "district": "Long Biên",
      "lat": 21.0408,
      "lon": 105.8905,
      "total_orders": 17,
      "member_since": "2025-01-09",
      "password": "123456"
    },
    {
      "id": 1218,
      "name": "Nguyễn Nhật Yến",
      "phone": "0987001218",
      "email": "nguyennhatyen1218@gmail.com",
      "address": "126 Cổ Nhuế, Bắc Từ Liêm",
      "district": "Bắc Từ Liêm",
      "lat": 21.0595,
      "lon": 105.7709,
      "total_orders": 12,
      "member_since": "2023-05-28",
      "password": "123456"
    },
    {
      "id": 1219,
      "name": "Đào Nhật Long",
      "phone": "0987001219",
      "email": "daonhatlong1219@gmail.com",
      "address": "62 Lạc Trung, Đống Đa",
      "district": "Đống Đa",
      "lat": 21.0278,
      "lon": 105.8405,
      "total_orders": 30,
      "member_since": "2024-05-13",
      "password": "123456"
    },
    {
      "id": 1220,
      "name": "Vũ Nhật Tài",
      "phone": "0987001220",
      "email": "vunhattai1220@gmail.com",
      "address": "35 Hoàng Hoa Thám, Long Biên",
      "district": "Long Biên",
      "lat": 21.0672,
      "lon": 105.8868,
      "total_orders": 30,
      "member_since": "2023-07-20",
      "password": "123456"
    },
    {
      "id": 1221,
      "name": "Nguyễn Hồng Thảo",
      "phone": "0987001221",
      "email": "nguyenhongthao1221@gmail.com",
      "address": "119 Nguyễn Trãi, Ba Đình",
      "district": "Ba Đình",
      "lat": 21.034,
      "lon": 105.8333,
      "total_orders": 16,
      "member_since": "2023-11-11",
      "password": "123456"
    },
    {
      "id": 1222,
      "name": "Bùi Văn An",
      "phone": "0987001222",
      "email": "buivanan1222@gmail.com",
      "address": "57 Hồ Tùng Mậu, Thanh Xuân",
      "district": "Thanh Xuân",
      "lat": 20.9824,
      "lon": 105.8126,
      "total_orders": 23,
      "member_since": "2023-04-21",
      "password": "123456"
    },
    {
      "id": 1223,
      "name": "Phạm Hữu Hùng",
      "phone": "0987001223",
      "email": "phamhuuhung1223@gmail.com",
      "address": "39 Lạc Trung, Long Biên",
      "district": "Long Biên",
      "lat": 21.0646,
      "lon": 105.8859,
      "total_orders": 15,
      "member_since": "2023-11-07",
      "password": "123456"
    },
    {
      "id": 1224,
      "name": "Ngô Hoài Ngọc",
      "phone": "0987001224",
      "email": "ngohoaingoc1224@gmail.com",
      "address": "146 Nguyễn Lương Bằng, Tây Hồ",
      "district": "Tây Hồ",
      "lat": 21.063,
      "lon": 105.829,
      "total_orders": 2,
      "member_since": "2023-10-05",
      "password": "123456"
    },
    {
      "id": 1225,
      "name": "Tạ Văn Long",
      "phone": "0987001225",
      "email": "tavanlong1225@gmail.com",
      "address": "21 Chùa Láng, Thanh Xuân",
      "district": "Thanh Xuân",
      "lat": 20.9939,
      "lon": 105.81,
      "total_orders": 19,
      "member_since": "2025-08-21",
      "password": "123456"
    },
    {
      "id": 1226,
      "name": "Trịnh Anh Đức",
      "phone": "0987001226",
      "email": "trinhanhduc1226@gmail.com",
      "address": "96 Trung Kính, Đống Đa",
      "district": "Đống Đa",
      "lat": 21.0274,
      "lon": 105.8366,
      "total_orders": 30,
      "member_since": "2022-08-19",
      "password": "123456"
    },
    {
      "id": 1227,
      "name": "Trịnh Xuân Lan",
      "phone": "0987001227",
      "email": "trinhxuanlan1227@gmail.com",
      "address": "84 Nguyễn Khánh Toàn, Bắc Từ Liêm",
      "district": "Bắc Từ Liêm",
      "lat": 21.0626,
      "lon": 105.7888,
      "total_orders": 29,
      "member_since": "2024-06-14",
      "password": "123456"
    },
    {
      "id": 1228,
      "name": "Đặng Quang Ngọc",
      "phone": "0987001228",
      "email": "dangquangngoc1228@gmail.com",
      "address": "135 Chùa Láng, Tây Hồ",
      "district": "Tây Hồ",
      "lat": 21.0731,
      "lon": 105.8373,
      "total_orders": 14,
      "member_since": "2024-01-08",
      "password": "123456"
    },
    {
      "id": 1229,
      "name": "Mai Anh Sơn",
      "phone": "0987001229",
      "email": "maianhson1229@gmail.com",
      "address": "91 Võ Chí Công, Hoàng Mai",
      "district": "Hoàng Mai",
      "lat": 20.9651,
      "lon": 105.8623,
      "total_orders": 6,
      "member_since": "2023-03-16",
      "password": "123456"
    },
    {
      "id": 1230,
      "name": "Lê Xuân Hương",
      "phone": "0987001230",
      "email": "lexuanhuong1230@gmail.com",
      "address": "78 Âu Cơ, Hà Đông",
      "district": "Hà Đông",
      "lat": 20.9605,
      "lon": 105.7721,
      "total_orders": 24,
      "member_since": "2024-07-25",
      "password": "123456"
    },
    {
      "id": 1231,
      "name": "Lê Hồng Ngọc",
      "phone": "0987001231",
      "email": "lehongngoc1231@gmail.com",
      "address": "116 Tây Sơn, Hai Bà Trưng",
      "district": "Hai Bà Trưng",
      "lat": 20.9932,
      "lon": 105.865,
      "total_orders": 23,
      "member_since": "2022-05-01",
      "password": "123456"
    },
    {
      "id": 1232,
      "name": "Bùi Thanh Trí",
      "phone": "0987001232",
      "email": "buithanhtri1232@gmail.com",
      "address": "15 Lê Đức Thọ, Hoàng Mai",
      "district": "Hoàng Mai",
      "lat": 20.9579,
      "lon": 105.8388,
      "total_orders": 1,
      "member_since": "2022-01-15",
      "password": "123456"
    },
    {
      "id": 1233,
      "name": "Hồ Quang Hùng",
      "phone": "0987001233",
      "email": "hoquanghung1233@gmail.com",
      "address": "14 Nguyễn Khánh Toàn, Nam Từ Liêm",
      "district": "Nam Từ Liêm",
      "lat": 21.0191,
      "lon": 105.7757,
      "total_orders": 11,
      "member_since": "2024-10-16",
      "password": "123456"
    },
    {
      "id": 1234,
      "name": "Trần Quang Hoa",
      "phone": "0987001234",
      "email": "tranquanghoa1234@gmail.com",
      "address": "94 Giải Phóng, Cầu Giấy",
      "district": "Cầu Giấy",
      "lat": 21.0176,
      "lon": 105.804,
      "total_orders": 6,
      "member_since": "2025-01-26",
      "password": "123456"
    },
    {
      "id": 1235,
      "name": "Dương Hữu Trí",
      "phone": "0987001235",
      "email": "duonghuutri1235@gmail.com",
      "address": "120 Minh Khai, Hoàn Kiếm",
      "district": "Hoàn Kiếm",
      "lat": 21.0251,
      "lon": 105.8489,
      "total_orders": 27,
      "member_since": "2025-06-08",
      "password": "123456"
    },
    {
      "id": 1236,
      "name": "Đỗ Quang Hải",
      "phone": "0987001236",
      "email": "doquanghai1236@gmail.com",
      "address": "92 Lĩnh Nam, Tây Hồ",
      "district": "Tây Hồ",
      "lat": 21.074,
      "lon": 105.8029,
      "total_orders": 16,
      "member_since": "2022-10-10",
      "password": "123456"
    },
    {
      "id": 1237,
      "name": "Đào Minh Hùng",
      "phone": "0987001237",
      "email": "daominhhung1237@gmail.com",
      "address": "147 Vĩnh Tuy, Tây Hồ",
      "district": "Tây Hồ",
      "lat": 21.0631,
      "lon": 105.8206,
      "total_orders": 12,
      "member_since": "2025-06-20",
      "password": "123456"
    },
    {
      "id": 1238,
      "name": "Phan Khánh Khoa",
      "phone": "0987001238",
      "email": "phankhanhkhoa1238@gmail.com",
      "address": "132 Phạm Văn Đồng, Hà Đông",
      "district": "Hà Đông",
      "lat": 20.9791,
      "lon": 105.7776,
      "total_orders": 1,
      "member_since": "2023-12-23",
      "password": "123456"
    },
    {
      "id": 1239,
      "name": "Đoàn Hồng Uyên",
      "phone": "0987001239",
      "email": "doanhonguyen1239@gmail.com",
      "address": "32 Trần Phú, Tây Hồ",
      "district": "Tây Hồ",
      "lat": 21.0625,
      "lon": 105.8228,
      "total_orders": 15,
      "member_since": "2022-01-09",
      "password": "123456"
    },
    {
      "id": 1240,
      "name": "Dương Thu Ngọc",
      "phone": "0987001240",
      "email": "duongthungoc1240@gmail.com",
      "address": "45 Âu Cơ, Hoàn Kiếm",
      "district": "Hoàn Kiếm",
      "lat": 21.0309,
      "lon": 105.8565,
      "total_orders": 16,
      "member_since": "2022-08-08",
      "password": "123456"
    },
    {
      "id": 1241,
      "name": "Lý Thu Hoa",
      "phone": "0987001241",
      "email": "lythuhoa1241@gmail.com",
      "address": "5 Tam Trinh, Hai Bà Trưng",
      "district": "Hai Bà Trưng",
      "lat": 20.9954,
      "lon": 105.8652,
      "total_orders": 19,
      "member_since": "2024-01-08",
      "password": "123456"
    },
    {
      "id": 1242,
      "name": "Đặng Tuấn Khang",
      "phone": "0987001242",
      "email": "dangtuankhang1242@gmail.com",
      "address": "34 Võ Chí Công, Bắc Từ Liêm",
      "district": "Bắc Từ Liêm",
      "lat": 21.066,
      "lon": 105.7724,
      "total_orders": 20,
      "member_since": "2021-08-23",
      "password": "123456"
    },
    {
      "id": 1243,
      "name": "Trần Nhật Khang",
      "phone": "0987001243",
      "email": "trannhatkhang1243@gmail.com",
      "address": "95 Nguyễn Lương Bằng, Long Biên",
      "district": "Long Biên",
      "lat": 21.0722,
      "lon": 105.9112,
      "total_orders": 24,
      "member_since": "2024-01-06",
      "password": "123456"
    },
    {
      "id": 1244,
      "name": "Võ Bảo Long",
      "phone": "0987001244",
      "email": "vobaolong1244@gmail.com",
      "address": "148 Lĩnh Nam, Thanh Xuân",
      "district": "Thanh Xuân",
      "lat": 20.9887,
      "lon": 105.8077,
      "total_orders": 27,
      "member_since": "2023-09-22",
      "password": "123456"
    },
    {
      "id": 1245,
      "name": "Vũ Thu Phúc",
      "phone": "0987001245",
      "email": "vuthuphuc1245@gmail.com",
      "address": "76 Tam Trinh, Tây Hồ",
      "district": "Tây Hồ",
      "lat": 21.0559,
      "lon": 105.8128,
      "total_orders": 15,
      "member_since": "2025-11-15",
      "password": "123456"
    },
    {
      "id": 1246,
      "name": "Hoàng Thị Khoa",
      "phone": "0987001246",
      "email": "hoangthikhoa1246@gmail.com",
      "address": "158 Nguyễn Hoàng Tôn, Cầu Giấy",
      "district": "Cầu Giấy",
      "lat": 21.0383,
      "lon": 105.791,
      "total_orders": 23,
      "member_since": "2021-02-27",
      "password": "123456"
    },
    {
      "id": 1247,
      "name": "Phạm Thanh Tài",
      "phone": "0987001247",
      "email": "phamthanhtai1247@gmail.com",
      "address": "138 Phạm Văn Đồng, Long Biên",
      "district": "Long Biên",
      "lat": 21.0647,
      "lon": 105.9017,
      "total_orders": 12,
      "member_since": "2023-11-19",
      "password": "123456"
    },
    {
      "id": 1248,
      "name": "Trần Hoài Hà",
      "phone": "0987001248",
      "email": "tranhoaiha1248@gmail.com",
      "address": "31 Hàng Bông, Hoàn Kiếm",
      "district": "Hoàn Kiếm",
      "lat": 21.0359,
      "lon": 105.8441,
      "total_orders": 12,
      "member_since": "2023-03-18",
      "password": "123456"
    },
    {
      "id": 1249,
      "name": "Tạ Thanh Vinh",
      "phone": "0987001249",
      "email": "tathanhvinh1249@gmail.com",
      "address": "64 Bạch Mai, Thanh Xuân",
      "district": "Thanh Xuân",
      "lat": 20.9953,
      "lon": 105.8248,
      "total_orders": 22,
      "member_since": "2023-05-03",
      "password": "123456"
    },
    {
      "id": 1250,
      "name": "Phan Hữu Đạt",
      "phone": "0987001250",
      "email": "phanhuudat1250@gmail.com",
      "address": "40 Giải Phóng, Nam Từ Liêm",
      "district": "Nam Từ Liêm",
      "lat": 21.0118,
      "lon": 105.775,
      "total_orders": 11,
      "member_since": "2022-12-11",
      "password": "123456"
    },
    {
      "id": 1251,
      "name": "Tạ Hoài Sơn",
      "phone": "0987001251",
      "email": "tahoaison1251@gmail.com",
      "address": "29 Vĩnh Tuy, Hoàn Kiếm",
      "district": "Hoàn Kiếm",
      "lat": 21.0257,
      "lon": 105.8556,
      "total_orders": 18,
      "member_since": "2024-04-02",
      "password": "123456"
    },
    {
      "id": 1252,
      "name": "Hoàng Xuân Hương",
      "phone": "0987001252",
      "email": "hoangxuanhuong1252@gmail.com",
      "address": "98 Kim Mã, Đống Đa",
      "district": "Đống Đa",
      "lat": 21.0247,
      "lon": 105.8335,
      "total_orders": 26,
      "member_since": "2024-12-22",
      "password": "123456"
    },
    {
      "id": 1253,
      "name": "Tạ Mạnh Quân",
      "phone": "0987001253",
      "email": "tamanhquan1253@gmail.com",
      "address": "2 Tân Mai, Hoàn Kiếm",
      "district": "Hoàn Kiếm",
      "lat": 21.0197,
      "lon": 105.8527,
      "total_orders": 28,
      "member_since": "2023-07-28",
      "password": "123456"
    },
    {
      "id": 1254,
      "name": "Ngô Gia Quỳnh",
      "phone": "0987001254",
      "email": "ngogiaquynh1254@gmail.com",
      "address": "153 Cổ Nhuế, Nam Từ Liêm",
      "district": "Nam Từ Liêm",
      "lat": 20.9901,
      "lon": 105.7629,
      "total_orders": 24,
      "member_since": "2024-10-11",
      "password": "123456"
    },
    {
      "id": 1255,
      "name": "Chu Thị Đạt",
      "phone": "0987001255",
      "email": "chuthidat1255@gmail.com",
      "address": "126 Nguyễn Tuân, Nam Từ Liêm",
      "district": "Nam Từ Liêm",
      "lat": 21.0239,
      "lon": 105.7865,
      "total_orders": 30,
      "member_since": "2023-01-12",
      "password": "123456"
    },
    {
      "id": 1256,
      "name": "Đặng Minh Khang",
      "phone": "0987001256",
      "email": "dangminhkhang1256@gmail.com",
      "address": "107 Kim Mã, Tây Hồ",
      "district": "Tây Hồ",
      "lat": 21.0486,
      "lon": 105.8084,
      "total_orders": 18,
      "member_since": "2025-02-09",
      "password": "123456"
    },
    {
      "id": 1257,
      "name": "Đinh Ngọc Vân",
      "phone": "0987001257",
      "email": "dinhngocvan1257@gmail.com",
      "address": "14 Tây Sơn, Bắc Từ Liêm",
      "district": "Bắc Từ Liêm",
      "lat": 21.07,
      "lon": 105.7815,
      "total_orders": 11,
      "member_since": "2023-09-03",
      "password": "123456"
    },
    {
      "id": 1258,
      "name": "Dương Quang Đức",
      "phone": "0987001258",
      "email": "duongquangduc1258@gmail.com",
      "address": "52 Giải Phóng, Tây Hồ",
      "district": "Tây Hồ",
      "lat": 21.0605,
      "lon": 105.8197,
      "total_orders": 16,
      "member_since": "2023-10-08",
      "password": "123456"
    },
    {
      "id": 1259,
      "name": "Tô Anh Lan",
      "phone": "0987001259",
      "email": "toanhlan1259@gmail.com",
      "address": "32 Chùa Láng, Ba Đình",
      "district": "Ba Đình",
      "lat": 21.0324,
      "lon": 105.8454,
      "total_orders": 24,
      "member_since": "2023-06-04",
      "password": "123456"
    },
    {
      "id": 1260,
      "name": "Lê Thu Mai",
      "phone": "0987001260",
      "email": "lethumai1260@gmail.com",
      "address": "125 Trần Phú, Đống Đa",
      "district": "Đống Đa",
      "lat": 21.0266,
      "lon": 105.8375,
      "total_orders": 29,
      "member_since": "2022-12-15",
      "password": "123456"
    },
    {
      "id": 1261,
      "name": "Mai Thanh Hà",
      "phone": "0987001261",
      "email": "maithanhha1261@gmail.com",
      "address": "97 Thái Hà, Hoàng Mai",
      "district": "Hoàng Mai",
      "lat": 20.9731,
      "lon": 105.8718,
      "total_orders": 25,
      "member_since": "2022-02-04",
      "password": "123456"
    },
    {
      "id": 1262,
      "name": "Hồ Hải Tuấn",
      "phone": "0987001262",
      "email": "hohaituan1262@gmail.com",
      "address": "137 Cổ Nhuế, Nam Từ Liêm",
      "district": "Nam Từ Liêm",
      "lat": 20.9916,
      "lon": 105.7727,
      "total_orders": 14,
      "member_since": "2023-09-13",
      "password": "123456"
    },
    {
      "id": 1263,
      "name": "Mai Gia Sơn",
      "phone": "0987001263",
      "email": "maigiason1263@gmail.com",
      "address": "123 Tân Mai, Nam Từ Liêm",
      "district": "Nam Từ Liêm",
      "lat": 21.0079,
      "lon": 105.7736,
      "total_orders": 9,
      "member_since": "2023-04-15",
      "password": "123456"
    },
    {
      "id": 1264,
      "name": "Đặng Gia Hoài",
      "phone": "0987001264",
      "email": "danggiahoai1264@gmail.com",
      "address": "34 Quang Trung, Ba Đình",
      "district": "Ba Đình",
      "lat": 21.0518,
      "lon": 105.8392,
      "total_orders": 4,
      "member_since": "2024-06-27",
      "password": "123456"
    },
    {
      "id": 1265,
      "name": "Lê Ngọc Ngân",
      "phone": "0987001265",
      "email": "lengocngan1265@gmail.com",
      "address": "81 Nguyễn Tuân, Ba Đình",
      "district": "Ba Đình",
      "lat": 21.0433,
      "lon": 105.8452,
      "total_orders": 24,
      "member_since": "2023-04-15",
      "password": "123456"
    },
    {
      "id": 1266,
      "name": "Ngô Hoài Hoài",
      "phone": "0987001266",
      "email": "ngohoaihoai1266@gmail.com",
      "address": "130 Lĩnh Nam, Cầu Giấy",
      "district": "Cầu Giấy",
      "lat": 21.0174,
      "lon": 105.7975,
      "total_orders": 6,
      "member_since": "2021-02-21",
      "password": "123456"
    },
    {
      "id": 1267,
      "name": "Võ Quốc Nga",
      "phone": "0987001267",
      "email": "voquocnga1267@gmail.com",
      "address": "55 Hồ Tùng Mậu, Thanh Xuân",
      "district": "Thanh Xuân",
      "lat": 20.9831,
      "lon": 105.8256,
      "total_orders": 25,
      "member_since": "2023-10-05",
      "password": "123456"
    },
    {
      "id": 1268,
      "name": "Tạ Nhật Khoa",
      "phone": "0987001268",
      "email": "tanhatkhoa1268@gmail.com",
      "address": "71 Võ Chí Công, Thanh Xuân",
      "district": "Thanh Xuân",
      "lat": 20.9972,
      "lon": 105.8191,
      "total_orders": 16,
      "member_since": "2025-04-03",
      "password": "123456"
    },
    {
      "id": 1269,
      "name": "Tô Quốc Trí",
      "phone": "0987001269",
      "email": "toquoctri1269@gmail.com",
      "address": "57 Nguyễn Hoàng Tôn, Cầu Giấy",
      "district": "Cầu Giấy",
      "lat": 21.0233,
      "lon": 105.7921,
      "total_orders": 22,
      "member_since": "2023-04-11",
      "password": "123456"
    },
    {
      "id": 1270,
      "name": "Trịnh Tuấn Ngọc",
      "phone": "0987001270",
      "email": "trinhtuanngoc1270@gmail.com",
      "address": "100 Lò Đúc, Cầu Giấy",
      "district": "Cầu Giấy",
      "lat": 21.035,
      "lon": 105.8035,
      "total_orders": 8,
      "member_since": "2023-01-12",
      "password": "123456"
    },
    {
      "id": 1271,
      "name": "Tạ Quốc Hà",
      "phone": "0987001271",
      "email": "taquocha1271@gmail.com",
      "address": "25 Yên Phụ, Thanh Xuân",
      "district": "Thanh Xuân",
      "lat": 20.9876,
      "lon": 105.8088,
      "total_orders": 20,
      "member_since": "2024-09-24",
      "password": "123456"
    },
    {
      "id": 1272,
      "name": "Hồ Đức Uyên",
      "phone": "0987001272",
      "email": "hoducuyen1272@gmail.com",
      "address": "138 Chùa Láng, Long Biên",
      "district": "Long Biên",
      "lat": 21.0638,
      "lon": 105.8893,
      "total_orders": 10,
      "member_since": "2024-11-20",
      "password": "123456"
    },
    {
      "id": 1273,
      "name": "Trần Gia Trung",
      "phone": "0987001273",
      "email": "trangiatrung1273@gmail.com",
      "address": "9 Nguyễn Hoàng Tôn, Hai Bà Trưng",
      "district": "Hai Bà Trưng",
      "lat": 20.9947,
      "lon": 105.8613,
      "total_orders": 2,
      "member_since": "2023-06-06",
      "password": "123456"
    },
    {
      "id": 1274,
      "name": "Lương Thu Tuyết",
      "phone": "0987001274",
      "email": "luongthutuyet1274@gmail.com",
      "address": "88 Lê Đức Thọ, Ba Đình",
      "district": "Ba Đình",
      "lat": 21.0428,
      "lon": 105.8336,
      "total_orders": 8,
      "member_since": "2021-11-11",
      "password": "123456"
    },
    {
      "id": 1275,
      "name": "Phạm Thanh Hùng",
      "phone": "0987001275",
      "email": "phamthanhhung1275@gmail.com",
      "address": "4 Giảng Võ, Thanh Xuân",
      "district": "Thanh Xuân",
      "lat": 21.0011,
      "lon": 105.817,
      "total_orders": 6,
      "member_since": "2022-11-17",
      "password": "123456"
    },
    {
      "id": 1276,
      "name": "Mai Thanh Sơn",
      "phone": "0987001276",
      "email": "maithanhson1276@gmail.com",
      "address": "150 Nguyễn Văn Cừ, Long Biên",
      "district": "Long Biên",
      "lat": 21.0685,
      "lon": 105.8952,
      "total_orders": 13,
      "member_since": "2023-04-04",
      "password": "123456"
    },
    {
      "id": 1277,
      "name": "Dương Gia Lan",
      "phone": "0987001277",
      "email": "duonggialan1277@gmail.com",
      "address": "77 Xuân Thủy, Long Biên",
      "district": "Long Biên",
      "lat": 21.0478,
      "lon": 105.8837,
      "total_orders": 16,
      "member_since": "2024-06-11",
      "password": "123456"
    },
    {
      "id": 1278,
      "name": "Hoàng Quốc Việt",
      "phone": "0987001278",
      "email": "hoangquocviet1278@gmail.com",
      "address": "38 Lê Văn Lương, Đống Đa",
      "district": "Đống Đa",
      "lat": 21.0178,
      "lon": 105.8299,
      "total_orders": 5,
      "member_since": "2024-06-03",
      "password": "123456"
    },
    {
      "id": 1279,
      "name": "Đỗ Khánh Hạnh",
      "phone": "0987001279",
      "email": "dokhanhhanh1279@gmail.com",
      "address": "68 Đinh Tiên Hoàng, Hoàn Kiếm",
      "district": "Hoàn Kiếm",
      "lat": 21.0238,
      "lon": 105.8543,
      "total_orders": 13,
      "member_since": "2023-10-06",
      "password": "123456"
    },
    {
      "id": 1280,
      "name": "Tạ Hải Trang",
      "phone": "0987001280",
      "email": "tahaitrang1280@gmail.com",
      "address": "109 Lê Văn Lương, Hoàng Mai",
      "district": "Hoàng Mai",
      "lat": 20.9833,
      "lon": 105.8408,
      "total_orders": 8,
      "member_since": "2022-11-06",
      "password": "123456"
    },
    {
      "id": 1281,
      "name": "Đinh Minh Long",
      "phone": "0987001281",
      "email": "dinhminhlong1281@gmail.com",
      "address": "63 Lò Đúc, Tây Hồ",
      "district": "Tây Hồ",
      "lat": 21.0549,
      "lon": 105.8307,
      "total_orders": 14,
      "member_since": "2023-02-12",
      "password": "123456"
    },
    {
      "id": 1282,
      "name": "Lê Anh Minh",
      "phone": "0987001282",
      "email": "leanhminh1282@gmail.com",
      "address": "101 Nguyễn Hoàng Tôn, Cầu Giấy",
      "district": "Cầu Giấy",
      "lat": 21.0283,
      "lon": 105.7885,
      "total_orders": 3,
      "member_since": "2021-07-24",
      "password": "123456"
    },
    {
      "id": 1283,
      "name": "Lương Xuân Đức",
      "phone": "0987001283",
      "email": "luongxuanduc1283@gmail.com",
      "address": "126 Võ Chí Công, Cầu Giấy",
      "district": "Cầu Giấy",
      "lat": 21.0182,
      "lon": 105.8056,
      "total_orders": 18,
      "member_since": "2023-03-26",
      "password": "123456"
    },
    {
      "id": 1284,
      "name": "Hồ Nhật Dũng",
      "phone": "0987001284",
      "email": "honhatdung1284@gmail.com",
      "address": "14 Lạc Trung, Tây Hồ",
      "district": "Tây Hồ",
      "lat": 21.0581,
      "lon": 105.8213,
      "total_orders": 4,
      "member_since": "2022-02-28",
      "password": "123456"
    },
    {
      "id": 1285,
      "name": "Lý Gia Bình",
      "phone": "0987001285",
      "email": "lygiabinh1285@gmail.com",
      "address": "128 Giảng Võ, Hoàn Kiếm",
      "district": "Hoàn Kiếm",
      "lat": 21.0202,
      "lon": 105.858,
      "total_orders": 0,
      "member_since": "2022-07-14",
      "password": "123456"
    },
    {
      "id": 1286,
      "name": "Lê Quốc Hùng",
      "phone": "0987001286",
      "email": "lequochung1286@gmail.com",
      "address": "108 Phương Liệt, Tây Hồ",
      "district": "Tây Hồ",
      "lat": 21.0676,
      "lon": 105.8162,
      "total_orders": 24,
      "member_since": "2024-07-13",
      "password": "123456"
    },
    {
      "id": 1287,
      "name": "Lê Khánh Tuấn",
      "phone": "0987001287",
      "email": "lekhanhtuan1287@gmail.com",
      "address": "63 Hàng Đào, Long Biên",
      "district": "Long Biên",
      "lat": 21.0449,
      "lon": 105.8867,
      "total_orders": 13,
      "member_since": "2024-04-23",
      "password": "123456"
    },
    {
      "id": 1288,
      "name": "Mai Thị Hoài",
      "phone": "0987001288",
      "email": "maithihoai1288@gmail.com",
      "address": "40 Tam Trinh, Hoàn Kiếm",
      "district": "Hoàn Kiếm",
      "lat": 21.03,
      "lon": 105.8493,
      "total_orders": 6,
      "member_since": "2024-10-27",
      "password": "123456"
    },
    {
      "id": 1289,
      "name": "Đặng Khánh Minh",
      "phone": "0987001289",
      "email": "dangkhanhminh1289@gmail.com",
      "address": "136 Trần Phú, Hoàn Kiếm",
      "district": "Hoàn Kiếm",
      "lat": 21.0297,
      "lon": 105.8581,
      "total_orders": 28,
      "member_since": "2022-08-05",
      "password": "123456"
    },
    {
      "id": 1290,
      "name": "Tô Hồng Nhung",
      "phone": "0987001290",
      "email": "tohongnhung1290@gmail.com",
      "address": "115 Tây Sơn, Bắc Từ Liêm",
      "district": "Bắc Từ Liêm",
      "lat": 21.0777,
      "lon": 105.769,
      "total_orders": 23,
      "member_since": "2021-06-16",
      "password": "123456"
    },
    {
      "id": 1291,
      "name": "Hồ Hồng Đạt",
      "phone": "0987001291",
      "email": "hohongdat1291@gmail.com",
      "address": "64 Thái Hà, Ba Đình",
      "district": "Ba Đình",
      "lat": 21.0282,
      "lon": 105.8388,
      "total_orders": 15,
      "member_since": "2023-02-11",
      "password": "123456"
    },